price,unformattedPrice,address,addressStreet,addressCity,addressState,addressZipcode,beds,baths,area,latitude,longitude,isZillowOwned,variableData,badgeInfo,pgapt,sgapt,zestimate,info3String,brokerName
445000,445000,"8916 Mountain Shadows Cv APT B, Austin, TX 78735",8916 Mountain Shadows Cv APT B,Austin,TX,78735,3,3,1802,30.269207,-97.86206,FALSE,"{'type': 'PRICE_REDUCTION', 'text': '$20,000 (Nov 4)'}",,ForSale,For Sale (Broker),1189900,https://photos.zillowstatic.com/fp/98ab7c7b2895c2f5f278917766712625-zillow_web_48_23.jpg,Realty Austin
1995000,1995000,"1701 Alguno Rd, Austin, TX 78757",1701 Alguno Rd,Austin,TX,78757,4,4,3443,30.333755,-97.73414,FALSE,"{'type': 'DAYS_ON', 'text': '19 days on Zillow'}",,ForSale,New Construction,2154600,https://photos.zillowstatic.com/fp/98ab7c7b2895c2f5f278917766712625-zillow_web_48_23.jpg,Jimmy Gilmore & Co
929900,929900,"1800 Kinney Ave, Austin, TX 78704",1800 Kinney Ave,Austin,TX,78704,2,2,1318,30.25207,-97.7686,FALSE,"{'type': 'OPEN_HOUSE', 'text': 'Open: Sat. 2-4pm'}",,ForSale,For Sale (Broker),1048700,https://photos.zillowstatic.com/fp/98ab7c7b2895c2f5f278917766712625-zillow_web_48_23.jpg,Keller Williams Realty
6495000,6495000,"2407 Pemberton Pl, Austin, TX 78703",2407 Pemberton Pl,Austin,TX,78703,5,6,5000,30.290514,-97.75361,FALSE,"{'type': 'PRICE_REDUCTION', 'text': '$500,000 (Nov 16)'}",,ForSale,For Sale (Broker),6553400,https://photos.zillowstatic.com/fp/98ab7c7b2895c2f5f278917766712625-zillow_web_48_23.jpg,Douglas Elliman Real Estate
365000,365000,"11701 Lansdowne Rd, Austin, TX 78754",11701 Lansdowne Rd,Austin,TX,78754,4,2,2127,30.35524,-97.61292,FALSE,"{'type': '3D_HOME', 'text': '3D Tour'}",,ForSale,For Sale (Broker),421000,https://photos.zillowstatic.com/fp/98ab7c7b2895c2f5f278917766712625-zillow_web_48_23.jpg,Orchard Brokerage
800000,800000,"2507 Willow St, Austin, TX 78702",2507 Willow St,Austin,TX,78702,3,2,1724,30.253008,-97.716705,FALSE,"{'type': 'PRICE_REDUCTION', 'text': '$50,000 (Nov 16)'}",,ForSale,For Sale (Broker),838666,https://photos.zillowstatic.com/fp/98ab7c7b2895c2f5f278917766712625-zillow_web_48_23.jpg,Realty Austin
445000,445000,"6305 Roseborough Dr, Austin, TX 78747",6305 Roseborough Dr,Austin,TX,78747,4,3,2912,30.160515,-97.74256,FALSE,"{'type': '3D_HOME', 'text': '3D Tour'}",,ForSale,For Sale (Broker),483400,https://photos.zillowstatic.com/fp/98ab7c7b2895c2f5f278917766712625-zillow_web_48_23.jpg,Orchard Brokerage
995000,995000,"3102 Tom Green St, Austin, TX 78705",3102 Tom Green St,Austin,TX,78705,5,3,2126,30.293776,-97.73442,FALSE,"{'type': 'PRICE_REDUCTION', 'text': '$66,000 (Nov 16)'}",,ForSale,For Sale (Broker),1031700,https://photos.zillowstatic.com/fp/98ab7c7b2895c2f5f278917766712625-zillow_web_48_23.jpg,Respace LLC
449500,449500,"1917 Teagle Dr, Austin, TX 78741",1917 Teagle Dr,Austin,TX,78741,2,3,1451,30.225286,-97.74014,FALSE,"{'type': 'DAYS_ON', 'text': '5 days on Zillow'}",,ForSale,For Sale (Broker),478800,https://photos.zillowstatic.com/fp/98ab7c7b2895c2f5f278917766712625-zillow_web_48_23.jpg,Keller Williams Realty
715000,715000,"5807 Wagon Train Rd, Austin, TX 78749",5807 Wagon Train Rd,Austin,TX,78749,4,3,2581,30.220093,-97.86491,FALSE,"{'type': 'PRICE_REDUCTION', 'text': '$25,000 (Nov 16)'}",,ForSale,For Sale (Broker),739900,https://photos.zillowstatic.com/fp/98ab7c7b2895c2f5f278917766712625-zillow_web_48_23.jpg,Keller Williams Realty
419900,419900,"11212 Liberty Farms Dr, Austin, TX 78754",11212 Liberty Farms Dr,Austin,TX,78754,3,3,2490,30.361113,-97.641556,FALSE,"{'type': 'TIME_ON_INFO', 'text': '6 hours ago', 'data': {'isFresh': False}}",,ForSale,For Sale (Broker),441700,https://photos.zillowstatic.com/fp/98ab7c7b2895c2f5f278917766712625-zillow_web_48_23.jpg,Realty Executives Of Killeen
550000,550000,"12400 Britannic Dr, Austin, TX 78753",12400 Britannic Dr,Austin,TX,78753,4,3,2968,30.392305,-97.6481,FALSE,"{'type': '3D_HOME', 'text': '3D Tour'}",,ForSale,For Sale (Broker),570000,https://photos.zillowstatic.com/fp/98ab7c7b2895c2f5f278917766712625-zillow_web_48_23.jpg,Orchard Brokerage
375000,375000,"8803 Colonial Dr, Austin, TX 78758",8803 Colonial Dr,Austin,TX,78758,3,2,1107,30.363117,-97.71359,FALSE,"{'type': 'PRICE_REDUCTION', 'text': '$23,000 (Nov 15)'}",,ForSale,For Sale (Broker),392200,https://photos.zillowstatic.com/fp/98ab7c7b2895c2f5f278917766712625-zillow_web_48_23.jpg,Weichert-Barton Harris & CO
500000,500000,"1101 Turtle Creek Blvd, Austin, TX 78745",1101 Turtle Creek Blvd,Austin,TX,78745,4,2,1586,30.205769,-97.79082,FALSE,"{'type': 'OPEN_HOUSE', 'text': 'Open: Sat. 12-3pm'}",,ForSale,For Sale (Broker),515000,https://photos.zillowstatic.com/fp/98ab7c7b2895c2f5f278917766712625-zillow_web_48_23.jpg,Keller Williams Realty
774900,774900,"5820 Harper Park Dr UNIT 11, Austin, TX 78735",5820 Harper Park Dr UNIT 11,Austin,TX,78735,3,3,2424,30.238577,-97.85224,FALSE,"{'type': 'VIDEO_WALKTHROUGH', 'text': 'Video Walkthrough'}",,ForSale,For Sale (Broker),784500,https://photos.zillowstatic.com/fp/98ab7c7b2895c2f5f278917766712625-zillow_web_48_23.jpg,Mission Real Estate Group
549900,549900,"12712 Coralberry Cv, Austin, TX 78732",12712 Coralberry Cv,Austin,TX,78732,3,2,2293,30.37122,-97.896355,FALSE,"{'type': 'OPEN_HOUSE', 'text': 'Open: Sat. 12-2pm'}",,ForSale,For Sale (Broker),559300,https://photos.zillowstatic.com/fp/98ab7c7b2895c2f5f278917766712625-zillow_web_48_23.jpg,"The Leaders Realty, LLC"
525000,525000,"8105 Almondsbury Ln, Austin, TX 78748",8105 Almondsbury Ln,Austin,TX,78748,3,2,1340,30.184683,-97.797386,FALSE,"{'type': 'DAYS_ON', 'text': '4 days on Zillow'}",,ForSale,For Sale (Broker),532600,https://photos.zillowstatic.com/fp/98ab7c7b2895c2f5f278917766712625-zillow_web_48_23.jpg,All City Real Estate Ltd. Co
322000,322000,"2101 Crazyhorse Pass, Austin, TX 78734",2101 Crazyhorse Pass,Austin,TX,78734,2,1,1024,30.377777,-97.93006,FALSE,"{'type': 'PRICE_REDUCTION', 'text': '$7,000 (Nov 16)'}",,ForSale,For Sale (Broker),327600,https://photos.zillowstatic.com/fp/98ab7c7b2895c2f5f278917766712625-zillow_web_48_23.jpg,"Compass RE Texas, LLC"
609000,609000,"2300 Vanderbilt Cir, Austin, TX 78723",2300 Vanderbilt Cir,Austin,TX,78723,3,2,1843,30.319822,-97.67905,FALSE,"{'type': 'VIDEO_WALKTHROUGH', 'text': 'Video Walkthrough'}",,ForSale,For Sale (Broker),611800,https://photos.zillowstatic.com/fp/98ab7c7b2895c2f5f278917766712625-zillow_web_48_23.jpg,Moreland Properties
299415,299415,"7124 Dancing Wind Ln, Del Valle, TX 78617",7124 Dancing Wind Ln,Del Valle,TX,78617,3,3,1566,30.157305,-97.63956,FALSE,"{'type': 'OPEN_HOUSE', 'text': 'Open: Mon-Sun: By Appoi...'}",,ForSale,New Construction,300000,https://photos.zillowstatic.com/fp/98ab7c7b2895c2f5f278917766712625-zillow_web_48_23.jpg,HomesUSA.com
550000,550000,"11009 Daly Cv, Austin, TX 78747",11009 Daly Cv,Austin,TX,78747,4,2,2201,30.130777,-97.772675,FALSE,"{'type': '3D_HOME', 'text': '3D Tour'}",,ForSale,For Sale (Broker),549900,https://photos.zillowstatic.com/fp/98ab7c7b2895c2f5f278917766712625-zillow_web_48_23.jpg,Orchard Brokerage
500000,500000,"4611 Saloma Pl, Austin, TX 78749",4611 Saloma Pl,Austin,TX,78749,3,3,1456,30.20954,-97.85204,FALSE,"{'type': 'PRICE_REDUCTION', 'text': '$25,000 (Oct 13)'}",,ForSale,For Sale (Broker),499600,https://photos.zillowstatic.com/fp/98ab7c7b2895c2f5f278917766712625-zillow_web_48_23.jpg,Atlas Realty
399000,399000,"11314 James Haller Dr, Austin, TX 78748",11314 James Haller Dr,Austin,TX,78748,5,3,1718,30.152431,-97.82785,FALSE,"{'type': 'PRICE_REDUCTION', 'text': '$6,000 (Nov 3)'}",,ForSale,For Sale (Broker),398500,https://photos.zillowstatic.com/fp/98ab7c7b2895c2f5f278917766712625-zillow_web_48_23.jpg,Total Realty Texas
425000,425000,"6817 Hartlage St, Austin, TX 78754",6817 Hartlage St,Austin,TX,78754,3,2,1843,30.35101,-97.60741,FALSE,"{'type': 'OPEN_HOUSE', 'text': 'Open: Sat. 10am-2pm'}",,ForSale,For Sale (Broker),424300,https://photos.zillowstatic.com/fp/98ab7c7b2895c2f5f278917766712625-zillow_web_48_23.jpg,Core Values Realty Associates
435000,435000,"9000 Berryline Cv, Austin, TX 78724",9000 Berryline Cv,Austin,TX,78724,4,3,2054,30.280134,-97.62827,FALSE,"{'type': '3D_HOME', 'text': '3D Tour'}",,ForSale,For Sale (Broker),434100,https://photos.zillowstatic.com/fp/98ab7c7b2895c2f5f278917766712625-zillow_web_48_23.jpg,Orchard Brokerage
440000,440000,"10425 Hess Dr, Austin, TX 78748",10425 Hess Dr,Austin,TX,78748,3,2,1506,30.159578,-97.81166,FALSE,"{'type': 'PRICE_REDUCTION', 'text': '$25,000 (Nov 1)'}",,ForSale,For Sale (Broker),438400,https://photos.zillowstatic.com/fp/98ab7c7b2895c2f5f278917766712625-zillow_web_48_23.jpg,Keller Williams Realty
459000,459000,"1741 Spyglass Dr APT 233, Austin, TX 78746",1741 Spyglass Dr APT 233,Austin,TX,78746,2,2,1027,30.258104,-97.79056,FALSE,"{'type': 'OPEN_HOUSE', 'text': 'Open: Sun. 12-2pm'}",,ForSale,For Sale (Broker),457027,https://photos.zillowstatic.com/fp/98ab7c7b2895c2f5f278917766712625-zillow_web_48_23.jpg,"Compass RE Texas, LLC"
585000,585000,"6705 Ondantra Bnd, Austin, TX 78744",6705 Ondantra Bnd,Austin,TX,78744,4,3,3206,30.163921,-97.73324,FALSE,"{'type': 'DAYS_ON', 'text': '20 days on Zillow'}",,ForSale,For Sale (Broker),582692,https://photos.zillowstatic.com/fp/98ab7c7b2895c2f5f278917766712625-zillow_web_48_23.jpg,Rivet Real Estate
329000,329000,"704 W 21st St APT 308, Austin, TX 78705",704 W 21st St APT 308,Austin,TX,78705,2,2,808,30.284042,-97.745125,FALSE,"{'type': 'DAYS_ON', 'text': '33 days on Zillow'}",,ForSale,For Sale (Broker),326300,https://photos.zillowstatic.com/fp/98ab7c7b2895c2f5f278917766712625-zillow_web_48_23.jpg,Keller Williams Realty
349900,349900,"15204 Bullbrier Rd, Austin, TX 78724",15204 Bullbrier Rd,Austin,TX,78724,4,2,1858,30.25987,-97.574684,FALSE,"{'type': 'DAYS_ON', 'text': '7 days on Zillow'}",,ForSale,For Sale (Broker),347173,https://photos.zillowstatic.com/fp/98ab7c7b2895c2f5f278917766712625-zillow_web_48_23.jpg,The Real ATX
329000,329000,"1851 River Crossing Cir APT A, Austin, TX 78741",1851 River Crossing Cir APT A,Austin,TX,78741,2,3,1059,30.230452,-97.71427,FALSE,"{'type': 'DAYS_ON', 'text': '20 days on Zillow'}",,ForSale,For Sale (Broker),326200,https://photos.zillowstatic.com/fp/98ab7c7b2895c2f5f278917766712625-zillow_web_48_23.jpg,Realty Austin
365000,365000,"9308 Canus Dr, Austin, TX 78748",9308 Canus Dr,Austin,TX,78748,3,2,1368,30.1846,-97.83413,FALSE,"{'type': 'DAYS_ON', 'text': '9 days on Zillow'}",,ForSale,For Sale (Broker),362155,,Realty Texas LLC
379000,379000,"6824 Quinton Dr, Austin, TX 78747",6824 Quinton Dr,Austin,TX,78747,3,3,2068,30.152006,-97.73984,FALSE,"{'type': 'PRICE_REDUCTION', 'text': '$10,000 (Nov 4)'}",,ForSale,For Sale (Broker),376046,https://photos.zillowstatic.com/fp/98ab7c7b2895c2f5f278917766712625-zillow_web_48_23.jpg,"eXp Realty, LLC"
399999,399999,"6805 Horseshoe Pond Dr, Del Valle, TX 78617",6805 Horseshoe Pond Dr,Del Valle,TX,78617,4,3,2281,30.15957,-97.63356,FALSE,"{'type': 'DAYS_ON', 'text': '16 days on Zillow'}",,ForSale,For Sale (Broker),397036,https://photos.zillowstatic.com/fp/98ab7c7b2895c2f5f278917766712625-zillow_web_48_23.jpg,Keller Williams Realty
405000,405000,"1909 Rinker Ranch Dr, Austin, TX 78725",1909 Rinker Ranch Dr,Austin,TX,78725,3,2,1370,30.218246,-97.63541,FALSE,"{'type': 'OPEN_HOUSE', 'text': 'Open: Sat. 11am-1pm'}",,ForSale,For Sale (Broker),402000,https://photos.zillowstatic.com/fp/98ab7c7b2895c2f5f278917766712625-zillow_web_48_23.jpg,FlyHomes Brokerage LLC
430000,430000,"12907 Heyerdahl Dr, Austin, TX 78753",12907 Heyerdahl Dr,Austin,TX,78753,3,3,2233,30.401566,-97.65073,FALSE,"{'type': '3D_HOME', 'text': '3D Tour'}",,ForSale,For Sale (Broker),426814,https://photos.zillowstatic.com/fp/98ab7c7b2895c2f5f278917766712625-zillow_web_48_23.jpg,Realty Austin
285000,285000,"4206 McKinney Falls Pkwy, Austin, TX 78744",4206 McKinney Falls Pkwy,Austin,TX,78744,3,2,1428,30.191557,-97.69944,FALSE,"{'type': 'DAYS_ON', 'text': '49 days on Zillow'}",,ForSale,For Sale (Broker),281700,https://photos.zillowstatic.com/fp/98ab7c7b2895c2f5f278917766712625-zillow_web_48_23.jpg,Berkshire Hathaway TX Realty
374000,374000,"5500 China Berry Rd, Austin, TX 78744",5500 China Berry Rd,Austin,TX,78744,4,2,1082,30.192705,-97.73609,FALSE,"{'type': 'OPEN_HOUSE', 'text': 'Open: Thu. 9am-7pm'}",,ForSale,For Sale (Broker),370651,https://photos.zillowstatic.com/fp/98ab7c7b2895c2f5f278917766712625-zillow_web_48_23.jpg,"Opendoor Brokerage, LLC"
439500,439500,"2601 Parker Ln APT A, Austin, TX 78741",2601 Parker Ln APT A,Austin,TX,78741,3,2,1122,30.229162,-97.73896,FALSE,"{'type': 'PRICE_REDUCTION', 'text': '$10,000 (Oct 25)'}",,ForSale,For Sale (Broker),436075,https://photos.zillowstatic.com/fp/98ab7c7b2895c2f5f278917766712625-zillow_web_48_23.jpg,Varela Properties
450000,450000,"2813 Marcus Abrams Blvd, Austin, TX 78748",2813 Marcus Abrams Blvd,Austin,TX,78748,3,3,1455,30.149862,-97.84323,FALSE,"{'type': 'OPEN_HOUSE', 'text': 'Open: Sat. 11am-2pm'}",,ForSale,For Sale (Broker),446037,https://photos.zillowstatic.com/fp/98ab7c7b2895c2f5f278917766712625-zillow_web_48_23.jpg,All City Real Estate Ltd. Co
356900,356900,"2504 Elara Dr, Austin, TX 78725",2504 Elara Dr,Austin,TX,78725,4,3,1735,30.213396,-97.638275,FALSE,"{'type': 'PRICE_REDUCTION', 'text': '$18,100 (Oct 7)'}",,ForSale,For Sale (Broker),352800,https://photos.zillowstatic.com/fp/98ab7c7b2895c2f5f278917766712625-zillow_web_48_23.jpg,Keller Williams Realty
310000,310000,"15104 Sabal Palm Rd, Austin, TX 78724",15104 Sabal Palm Rd,Austin,TX,78724,4,3,1704,30.257038,-97.578636,FALSE,"{'type': 'PRICE_REDUCTION', 'text': '$15,000 (Nov 7)'}",,ForSale,For Sale (Broker),305658,https://photos.zillowstatic.com/fp/98ab7c7b2895c2f5f278917766712625-zillow_web_48_23.jpg,"eXp Realty, LLC"
299900,299900,"5903 Wagon Bnd, Austin, TX 78744",5903 Wagon Bnd,Austin,TX,78744,3,2,1204,30.194813,-97.75984,FALSE,"{'type': 'DAYS_ON', 'text': '12 days on Zillow'}",,ForSale,For Sale (Broker),295553,https://photos.zillowstatic.com/fp/98ab7c7b2895c2f5f278917766712625-zillow_web_48_23.jpg,Keeping It Realty
275000,275000,"4703 Yucca Hill Dr, Austin, TX 78744",4703 Yucca Hill Dr,Austin,TX,78744,3,2,1282,30.178377,-97.75394,FALSE,"{'type': 'PRICE_REDUCTION', 'text': '$15,000 (Oct 14)'}",,ForSale,For Sale (Broker),270600,https://photos.zillowstatic.com/fp/98ab7c7b2895c2f5f278917766712625-zillow_web_48_23.jpg,Bramlett Residential
465000,465000,"9709 Point Vista Pl, Austin, TX 78753",9709 Point Vista Pl,Austin,TX,78753,,0,2160,30.357817,-97.67774,FALSE,"{'type': 'PRICE_REDUCTION', 'text': '$5,000 (Oct 17)'}",,ForSale,For Sale (Broker),460500,https://photos.zillowstatic.com/fp/98ab7c7b2895c2f5f278917766712625-zillow_web_48_23.jpg,Austin City Living
429000,429000,"4413 Dovemeadow Dr, Austin, TX 78744",4413 Dovemeadow Dr,Austin,TX,78744,3,2,1623,30.189259,-97.751595,FALSE,"{'type': 'PRICE_REDUCTION', 'text': '$20,000 (Oct 31)'}",,ForSale,For Sale (Broker),424500,https://photos.zillowstatic.com/fp/98ab7c7b2895c2f5f278917766712625-zillow_web_48_23.jpg,Teifke Real Estate
359900,359900,"8006 Bramble Bush Dr, Austin, TX 78747",8006 Bramble Bush Dr,Austin,TX,78747,3,3,1736,30.15768,-97.73964,FALSE,"{'type': 'DAYS_ON', 'text': '5 days on Zillow'}",,ForSale,For Sale (Broker),355400,https://photos.zillowstatic.com/fp/98ab7c7b2895c2f5f278917766712625-zillow_web_48_23.jpg,"Joseph Walter Realty, LLC"
430000,430000,"8900 Parker Ranch Cir UNIT A, Austin, TX 78748",8900 Parker Ranch Cir UNIT A,Austin,TX,78748,3,2,1559,30.190289,-97.83243,FALSE,"{'type': 'DAYS_ON', 'text': '12 days on Zillow'}",,ForSale,For Sale (Broker),425473,https://photos.zillowstatic.com/fp/98ab7c7b2895c2f5f278917766712625-zillow_web_48_23.jpg,Keller Williams Realty
499900,499900,"377 Limestone Trl, Austin, TX 78737",377 Limestone Trl,Austin,TX,78737,3,3,2299,30.21248,-97.979614,FALSE,"{'type': 'OPEN_HOUSE', 'text': 'Open: Sat. 1-3pm'}",,ForSale,For Sale (Broker),495300,https://photos.zillowstatic.com/fp/98ab7c7b2895c2f5f278917766712625-zillow_web_48_23.jpg,Keller Williams Realty
310000,310000,"14207 Levering St, Austin, TX 78725",14207 Levering St,Austin,TX,78725,4,2,1587,30.243668,-97.58593,FALSE,"{'type': 'PRICE_REDUCTION', 'text': '$10,000 (Oct 24)'}",,ForSale,For Sale (Broker),305400,https://photos.zillowstatic.com/fp/98ab7c7b2895c2f5f278917766712625-zillow_web_48_23.jpg,Fathom Realty
279500,279500,"14605 Thunderhead Rd, Austin, TX 78734",14605 Thunderhead Rd,Austin,TX,78734,3,2,1175,30.372517,-97.93202,FALSE,"{'type': 'DAYS_ON', 'text': '15 days on Zillow'}",,ForSale,For Sale (Broker),274889,https://photos.zillowstatic.com/fp/98ab7c7b2895c2f5f278917766712625-zillow_web_48_23.jpg,Suman Casey Realty
485000,485000,"8322 Empress Blvd, Austin, TX 78745",8322 Empress Blvd,Austin,TX,78745,3,3,1333,30.189907,-97.81825,FALSE,"{'type': 'DAYS_ON', 'text': '12 days on Zillow'}",,ForSale,For Sale (Broker),480174,https://photos.zillowstatic.com/fp/98ab7c7b2895c2f5f278917766712625-zillow_web_48_23.jpg,Spyglass Realty
370000,370000,"6812 Sunderland Trl, Austin, TX 78747",6812 Sunderland Trl,Austin,TX,78747,3,2,1352,30.147697,-97.74322,FALSE,"{'type': 'OPEN_HOUSE', 'text': 'Open: Thu. 9am-7pm'}",,ForSale,For Sale (Broker),365124,https://photos.zillowstatic.com/fp/98ab7c7b2895c2f5f278917766712625-zillow_web_48_23.jpg,"Opendoor Brokerage, LLC"
570000,570000,"11206 Kingsgate Dr, Austin, TX 78748",11206 Kingsgate Dr,Austin,TX,78748,4,3,3482,30.1589,-97.84011,FALSE,"{'type': 'OPEN_HOUSE', 'text': 'Open: Thu. 9am-7pm'}",,ForSale,For Sale (Broker),564981,https://photos.zillowstatic.com/fp/98ab7c7b2895c2f5f278917766712625-zillow_web_48_23.jpg,"Opendoor Brokerage, LLC"
450000,450000,"1225 Anise Dr, Austin, TX 78741",1225 Anise Dr,Austin,TX,78741,4,3,2088,30.22449,-97.6915,FALSE,"{'type': 'DAYS_ON', 'text': '13 days on Zillow'}",,ForSale,For Sale (Broker),444943,https://photos.zillowstatic.com/fp/98ab7c7b2895c2f5f278917766712625-zillow_web_48_23.jpg,Bella Via Realty
679000,679000,"6044 Bel Fay Ln, Austin, TX 78749",6044 Bel Fay Ln,Austin,TX,78749,4,2,2240,30.228006,-97.86439,FALSE,"{'type': '3D_HOME', 'text': '3D Tour'}",,ForSale,For Sale (Broker),673900,https://photos.zillowstatic.com/fp/98ab7c7b2895c2f5f278917766712625-zillow_web_48_23.jpg,Realty Austin
215000,215000,"2529 Rio Grande St APT 64, Austin, TX 78705",2529 Rio Grande St APT 64,Austin,TX,78705,0,1,393,30.290071,-97.74406,FALSE,"{'type': 'DAYS_ON', 'text': '25 days on Zillow'}",,ForSale,For Sale (Broker),209856,https://photos.zillowstatic.com/fp/98ab7c7b2895c2f5f278917766712625-zillow_web_48_23.jpg,Campus Condos
384000,384000,"7101 Siepel Dr, Austin, TX 78724",7101 Siepel Dr,Austin,TX,78724,3,2,1430,30.302065,-97.63921,FALSE,"{'type': 'OPEN_HOUSE', 'text': 'Open: Thu. 9am-7pm'}",,ForSale,For Sale (Broker),378779,https://photos.zillowstatic.com/fp/98ab7c7b2895c2f5f278917766712625-zillow_web_48_23.jpg,"Opendoor Brokerage, LLC"
425000,425000,"11603 Elk Park Trl, Austin, TX 78759",11603 Elk Park Trl,Austin,TX,78759,3,2,1732,30.412865,-97.74166,FALSE,"{'type': '3D_HOME', 'text': '3D Tour'}",,ForSale,For Sale (Broker),419742,https://photos.zillowstatic.com/fp/98ab7c7b2895c2f5f278917766712625-zillow_web_48_23.jpg,Keller Williams Realty
399999,399999,"10005 Dorset Dr, Austin, TX 78753",10005 Dorset Dr,Austin,TX,78753,3,2,1479,30.360504,-97.675,FALSE,"{'type': 'DAYS_ON', 'text': '17 days on Zillow'}",,ForSale,For Sale (Broker),394700,https://photos.zillowstatic.com/fp/98ab7c7b2895c2f5f278917766712625-zillow_web_48_23.jpg,Keller Williams Realty
410000,410000,"1600 Catalan Rd #401, Austin, TX 78748",1600 Catalan Rd #401,Austin,TX,78748,3,3,1918,30.15078,-97.836205,FALSE,"{'type': 'PRICE_REDUCTION', 'text': '$9,000 (Nov 10)'}",,ForSale,For Sale (Broker),404500,https://photos.zillowstatic.com/fp/98ab7c7b2895c2f5f278917766712625-zillow_web_48_23.jpg,Keller Williams - Lake Travis
645900,645900,"3105 Sasparilla Cv, Austin, TX 78748",3105 Sasparilla Cv,Austin,TX,78748,4,3,2686,30.16687,-97.85136,FALSE,"{'type': 'PRICE_REDUCTION', 'text': '$13,100 (Oct 31)'}",,ForSale,For Sale (Broker),640400,https://photos.zillowstatic.com/fp/98ab7c7b2895c2f5f278917766712625-zillow_web_48_23.jpg,Central Metro Realty
329905,329905,"1409 Brighton Ln, Austin, TX 78753",1409 Brighton Ln,Austin,TX,78753,3,2,1273,30.353626,-97.67541,FALSE,"{'type': 'DAYS_ON', 'text': '20 days on Zillow'}",,ForSale,For Sale (Broker),324400,https://photos.zillowstatic.com/fp/98ab7c7b2895c2f5f278917766712625-zillow_web_48_23.jpg,Real Estate Executives of Aus
475000,475000,"1806 Loreto Dr #A, Austin, TX 78721",1806 Loreto Dr #A,Austin,TX,78721,3,1,1026,30.281776,-97.70101,FALSE,"{'type': 'PRICE_REDUCTION', 'text': '$50,000 (Oct 27)'}",,ForSale,For Sale (Broker),469400,https://photos.zillowstatic.com/fp/98ab7c7b2895c2f5f278917766712625-zillow_web_48_23.jpg,West Austin Properties
299750,299750,"400 W 35th St APT 201, Austin, TX 78705",400 W 35th St APT 201,Austin,TX,78705,2,2,852,30.301851,-97.736946,FALSE,"{'type': 'PRICE_REDUCTION', 'text': '$15,250 (Oct 14)'}",,ForSale,For Sale (Broker),294100,https://photos.zillowstatic.com/fp/98ab7c7b2895c2f5f278917766712625-zillow_web_48_23.jpg,ListingSpark
365000,365000,"13017 Brahmin Dr, Austin, TX 78724",13017 Brahmin Dr,Austin,TX,78724,3,2,1464,30.260345,-97.588936,FALSE,"{'type': 'TIME_ON_INFO', 'text': '10 hours ago', 'data': {'isFresh': False}}",,ForSale,For Sale (Broker),359200,https://photos.zillowstatic.com/fp/98ab7c7b2895c2f5f278917766712625-zillow_web_48_23.jpg,Varela Properties
299000,299000,"3018 S 1st St APT 203, Austin, TX 78704",3018 S 1st St APT 203,Austin,TX,78704,1,1,573,30.234886,-97.764206,FALSE,"{'type': 'PRICE_REDUCTION', 'text': '$10,900 (Nov 11)'}",,ForSale,For Sale (Broker),293117,https://photos.zillowstatic.com/fp/98ab7c7b2895c2f5f278917766712625-zillow_web_48_23.jpg,"Compass RE Texas, LLC"
299000,299000,"11970 Jollyville Rd APT 104, Austin, TX 78759",11970 Jollyville Rd APT 104,Austin,TX,78759,2,2,1069,30.427027,-97.75934,FALSE,"{'type': 'PRICE_REDUCTION', 'text': '$13,000 (Nov 2)'}",,ForSale,For Sale (Broker),293109,https://photos.zillowstatic.com/fp/98ab7c7b2895c2f5f278917766712625-zillow_web_48_23.jpg,The Groove Realty
410000,410000,"7306 Cave Holw, Austin, TX 78750",7306 Cave Holw,Austin,TX,78750,2,3,1300,30.37464,-97.78993,FALSE,"{'type': 'PRICE_REDUCTION', 'text': '$64,500 (Nov 2)'}",,ForSale,For Sale (Broker),404100,,Teifke Real Estate
350000,350000,"4401 E Stassney Ln, Austin, TX 78744",4401 E Stassney Ln,Austin,TX,78744,3,2,1096,30.193527,-97.746956,FALSE,"{'type': '3D_HOME', 'text': '3D Tour'}",,ForSale,For Sale (Broker),343400,,Keller Williams Realty Lone St
340000,340000,"6718 Silvermine Dr UNIT 1702, Austin, TX 78736",6718 Silvermine Dr UNIT 1702,Austin,TX,78736,2,2,1072,30.245983,-97.889626,FALSE,"{'type': 'DAYS_ON', 'text': '13 days on Zillow'}",,ForSale,For Sale (Broker),333100,https://photos.zillowstatic.com/fp/5659d432ec384d3999cabe0d0e0e8ce0-zillow_web_48_23.jpg,"Hayes Heritage Realty, LLC"
569900,569900,"11719 Bell Ave #B, Austin, TX 78759",11719 Bell Ave #B,Austin,TX,78759,3,3,1832,30.41951,-97.75088,FALSE,"{'type': 'DAYS_ON', 'text': '25 days on Zillow'}",,ForSale,For Sale (Broker),562849,https://photos.zillowstatic.com/fp/98ab7c7b2895c2f5f278917766712625-zillow_web_48_23.jpg,RE/MAX Posh Properties
246777,246777,"2124 Burton Dr APT 163, Austin, TX 78741",2124 Burton Dr APT 163,Austin,TX,78741,2,2,850,30.232576,-97.73261,FALSE,"{'type': 'DAYS_ON', 'text': '5 days on Zillow'}",,ForSale,For Sale (Broker),239589,https://photos.zillowstatic.com/fp/98ab7c7b2895c2f5f278917766712625-zillow_web_48_23.jpg,"eXp Realty, LLC"
599000,599000,"1607 Sylvan Dr, Austin, TX 78741",1607 Sylvan Dr,Austin,TX,78741,3,1,1340,30.240452,-97.73496,FALSE,"{'type': 'DAYS_ON', 'text': '18 days on Zillow'}",,ForSale,For Sale (Broker),591804,https://photos.zillowstatic.com/fp/98ab7c7b2895c2f5f278917766712625-zillow_web_48_23.jpg,Keller Williams Realty
335000,335000,"1800 E 4th St UNIT 312, Austin, TX 78702",1800 E 4th St UNIT 312,Austin,TX,78702,1,1,518,30.260199,-97.72396,FALSE,"{'type': 'PRICE_REDUCTION', 'text': '$15,000 (Oct 6)'}",,ForSale,For Sale (Broker),327676,https://photos.zillowstatic.com/fp/98ab7c7b2895c2f5f278917766712625-zillow_web_48_23.jpg,Keller Williams Realty
375000,375000,"5935 Cherry Loop, Austin, TX 78745",5935 Cherry Loop,Austin,TX,78745,4,2,1436,30.207096,-97.788994,FALSE,"{'type': 'PRICE_REDUCTION', 'text': '$50,000 (Aug 24)'}",,ForSale,For Sale (Broker),367528,https://photos.zillowstatic.com/fp/98ab7c7b2895c2f5f278917766712625-zillow_web_48_23.jpg,"Keller Williams, LLC"
395000,395000,"3305 Savage Springs Dr, Austin, TX 78754",3305 Savage Springs Dr,Austin,TX,78754,5,3,1870,30.361452,-97.638435,FALSE,"{'type': 'OPEN_HOUSE', 'text': 'Open: Thu. 9am-7pm'}",,ForSale,For Sale (Broker),387403,https://photos.zillowstatic.com/fp/98ab7c7b2895c2f5f278917766712625-zillow_web_48_23.jpg,"Opendoor Brokerage, LLC"
575000,575000,"11012 Hattery Ln, Austin, TX 78717",11012 Hattery Ln,Austin,TX,78717,3,3,2274,30.497957,-97.78793,FALSE,"{'type': 'PRICE_REDUCTION', 'text': '$6,000 (Nov 13)'}",,ForSale,For Sale (Broker),567400,https://photos.zillowstatic.com/fp/98ab7c7b2895c2f5f278917766712625-zillow_web_48_23.jpg,VIP Realty
348000,348000,"8416 Shallot Way, Austin, TX 78748",8416 Shallot Way,Austin,TX,78748,3,2,1114,30.176043,-97.78908,FALSE,"{'type': 'PRICE_REDUCTION', 'text': '$37,000 (Nov 11)'}",,ForSale,For Sale (Broker),340100,,
599900,599900,"7313 Shadywood Dr, Austin, TX 78745",7313 Shadywood Dr,Austin,TX,78745,4,2,1412,30.187986,-97.78751,FALSE,"{'type': 'PRICE_REDUCTION', 'text': '$39,100 (Oct 13)'}",,ForSale,For Sale (Broker),591892,https://photos.zillowstatic.com/fp/98ab7c7b2895c2f5f278917766712625-zillow_web_48_23.jpg,Dash Realty
339900,339900,"5528 Liberton Ln, Austin, TX 78754",5528 Liberton Ln,Austin,TX,78754,3,2,1341,30.373348,-97.614655,FALSE,"{'type': 'PRICE_REDUCTION', 'text': '$10,100 (Nov 8)'}",,ForSale,For Sale (Broker),331817,https://photos.zillowstatic.com/fp/98ab7c7b2895c2f5f278917766712625-zillow_web_48_23.jpg,RE/MAX Posh Properties
371000,371000,"3004 Tilmon Ln, Austin, TX 78725",3004 Tilmon Ln,Austin,TX,78725,4,3,2189,30.227886,-97.589,FALSE,"{'type': 'OPEN_HOUSE', 'text': 'Open: Thu. 9am-7pm'}",,ForSale,For Sale (Broker),362755,https://photos.zillowstatic.com/fp/98ab7c7b2895c2f5f278917766712625-zillow_web_48_23.jpg,"Opendoor Brokerage, LLC"
639900,639900,"8913 Sendera Mesa Dr, Austin, TX 78749",8913 Sendera Mesa Dr,Austin,TX,78749,4,3,2656,30.201813,-97.85993,FALSE,"{'type': '3D_HOME', 'text': '3D Tour'}",,ForSale,For Sale (Broker),631600,https://photos.zillowstatic.com/fp/98ab7c7b2895c2f5f278917766712625-zillow_web_48_23.jpg,"Compass RE Texas, LLC"
384900,384900,"6808 Wentworth Dr, Austin, TX 78724",6808 Wentworth Dr,Austin,TX,78724,,0,1826,30.29502,-97.63045,FALSE,"{'type': 'PRICE_REDUCTION', 'text': '$15,000 (Nov 7)'}",,ForSale,For Sale (Broker),376532,https://photos.zillowstatic.com/fp/98ab7c7b2895c2f5f278917766712625-zillow_web_48_23.jpg,Keller Williams Realty
440000,440000,"11508 Gossamer Dr, Austin, TX 78754",11508 Gossamer Dr,Austin,TX,78754,3,2,1799,30.375725,-97.65084,FALSE,"{'type': 'DAYS_ON', 'text': '5 days on Zillow'}",,ForSale,For Sale (Broker),431500,,"Compass RE Texas, LLC"
449000,449000,"11023 Watchful Fox Dr, Austin, TX 78748",11023 Watchful Fox Dr,Austin,TX,78748,4,2,2062,30.150778,-97.81588,FALSE,"{'type': 'DAYS_ON', 'text': '2 days on Zillow'}",,ForSale,For Sale (Broker),440200,https://photos.zillowstatic.com/fp/98ab7c7b2895c2f5f278917766712625-zillow_web_48_23.jpg,"Floyd Real Estate, L.L.C."
365000,365000,"3806 Southridge Dr UNIT 3, Austin, TX 78704",3806 Southridge Dr UNIT 3,Austin,TX,78704,1,1,866,30.231215,-97.7776,FALSE,"{'type': 'OPEN_HOUSE', 'text': 'Open: Sun. 2-4pm'}",,ForSale,For Sale (Broker),356135,https://photos.zillowstatic.com/fp/98ab7c7b2895c2f5f278917766712625-zillow_web_48_23.jpg,MoveGroove
383000,383000,"12914 Margit Dr, Austin, TX 78729",12914 Margit Dr,Austin,TX,78729,3,3,1239,30.446434,-97.76019,FALSE,"{'type': 'OPEN_HOUSE', 'text': 'Open: Thu. 9am-7pm'}",,ForSale,For Sale (Broker),374100,https://photos.zillowstatic.com/fp/98ab7c7b2895c2f5f278917766712625-zillow_web_48_23.jpg,"Opendoor Brokerage, LLC"
486900,486900,"11515 Easy St, Austin, TX 78748",11515 Easy St,Austin,TX,78748,3,2,1340,30.151669,-97.831894,FALSE,"{'type': 'DAYS_ON', 'text': '13 days on Zillow'}",,ForSale,For Sale (Broker),477900,https://photos.zillowstatic.com/fp/98ab7c7b2895c2f5f278917766712625-zillow_web_48_23.jpg,Keller Williams Realty
342000,342000,"6613 Ferrystone Pass, Del Valle, TX 78617",6613 Ferrystone Pass,Del Valle,TX,78617,3,3,1705,30.161964,-97.63562,FALSE,"{'type': 'OPEN_HOUSE', 'text': 'Open: Thu. 9am-7pm'}",,ForSale,For Sale (Broker),332880,https://photos.zillowstatic.com/fp/98ab7c7b2895c2f5f278917766712625-zillow_web_48_23.jpg,"Opendoor Brokerage, LLC"
474990,474990,"11801 Copperstone Ave, Austin, TX 78748",11801 Copperstone Ave,Austin,TX,78748,4,3,2334,30.141275,-97.82708,FALSE,"{'type': 'OPEN_HOUSE', 'text': 'Open: M: 2:00 PM-6:00 P...'}",,ForSale,New Construction,465748,https://photos.zillowstatic.com/fp/98ab7c7b2895c2f5f278917766712625-zillow_web_48_23.jpg,Meritage Homes Realty
297000,297000,"4528 Secure Ln, Austin, TX 78725",4528 Secure Ln,Austin,TX,78725,2,2,1010,30.236088,-97.5706,FALSE,"{'type': 'OPEN_HOUSE', 'text': 'Open: Thu. 9am-7pm'}",,ForSale,For Sale (Broker),287718,https://photos.zillowstatic.com/fp/98ab7c7b2895c2f5f278917766712625-zillow_web_48_23.jpg,"Opendoor Brokerage, LLC"
349700,349700,"11309 Church Canyon Dr, Austin, TX 78754",11309 Church Canyon Dr,Austin,TX,78754,3,2,1268,30.359793,-97.63865,FALSE,"{'type': 'PRICE_REDUCTION', 'text': '$25,300 (Nov 10)'}",,ForSale,For Sale (Broker),340300,https://photos.zillowstatic.com/fp/98ab7c7b2895c2f5f278917766712625-zillow_web_48_23.jpg,Keller Williams Realty
346000,346000,"11941 Gaelic Dr, Austin, TX 78754",11941 Gaelic Dr,Austin,TX,78754,3,2,1915,30.360453,-97.615105,FALSE,"{'type': 'OPEN_HOUSE', 'text': 'Open: Thu. 9am-7pm'}",,ForSale,For Sale (Broker),336461,https://photos.zillowstatic.com/fp/98ab7c7b2895c2f5f278917766712625-zillow_web_48_23.jpg,"Opendoor Brokerage, LLC"
427000,427000,"7203 Bennett Ave, Austin, TX 78752",7203 Bennett Ave,Austin,TX,78752,4,2,1642,30.33117,-97.69998,FALSE,"{'type': 'PRICE_REDUCTION', 'text': '$5,000 (Nov 11)'}",,ForSale,For Sale (Broker),417300,https://photos.zillowstatic.com/fp/98ab7c7b2895c2f5f278917766712625-zillow_web_48_23.jpg,The Listing Firm
349995,349995,"6024 Signal Point, Austin, TX 78724",6024 Signal Point,Austin,TX,78724,3,2,1320,30.291254,-97.6458,FALSE,"{'type': 'PRICE_REDUCTION', 'text': '$19,005 (Nov 11)'}",,ForSale,For Sale (Broker),339800,https://photos.zillowstatic.com/fp/98ab7c7b2895c2f5f278917766712625-zillow_web_48_23.jpg,"Keller Williams, LLC"
625000,625000,"608 Fairfield Ln, Austin, TX 78751",608 Fairfield Ln,Austin,TX,78751,3,2,1210,30.310715,-97.72015,FALSE,"{'type': 'DAYS_ON', 'text': '14 days on Zillow'}",,ForSale,For Sale (Broker),614600,https://photos.zillowstatic.com/fp/98ab7c7b2895c2f5f278917766712625-zillow_web_48_23.jpg,Dan Dan the Real Estate Man
544900,544900,"3505 Bankside St, Austin, TX 78748",3505 Bankside St,Austin,TX,78748,3,2,2046,30.170559,-97.84759,FALSE,"{'type': 'PRICE_REDUCTION', 'text': '$10,000 (Oct 29)'}",,ForSale,For Sale (Broker),534400,https://photos.zillowstatic.com/fp/98ab7c7b2895c2f5f278917766712625-zillow_web_48_23.jpg,ListingSpark
499900,499900,"8308 Spring Valley Dr, Austin, TX 78736",8308 Spring Valley Dr,Austin,TX,78736,3,2,1408,30.23991,-97.89511,FALSE,"{'type': '3D_HOME', 'text': '3D Tour'}",,ForSale,For Sale (Broker),489300,https://photos.zillowstatic.com/fp/98ab7c7b2895c2f5f278917766712625-zillow_web_48_23.jpg,Orchard Brokerage
609000,609000,"(undisclosed Address), Austin, TX 78722",(undisclosed Address),Austin,TX,78722,3,2,1204,,,FALSE,"{'type': '3D_HOME', 'text': '3D Tour'}",,ForSale,For Sale (Broker),598300,https://photos.zillowstatic.com/fp/98ab7c7b2895c2f5f278917766712625-zillow_web_48_23.jpg,4M Realty Company
459999,459999,"14513 Mowsbury Dr, Austin, TX 78717",14513 Mowsbury Dr,Austin,TX,78717,3,3,2044,30.495798,-97.78222,FALSE,"{'type': 'PRICE_REDUCTION', 'text': '$29,001 (Nov 5)'}",,ForSale,For Sale (Broker),449203,https://photos.zillowstatic.com/fp/98ab7c7b2895c2f5f278917766712625-zillow_web_48_23.jpg,Keller Williams Realty
550000,550000,"4804 Blueberry Trl, Austin, TX 78723",4804 Blueberry Trl,Austin,TX,78723,3,2,1620,30.29521,-97.68607,FALSE,"{'type': 'PRICE_REDUCTION', 'text': '$10,000 (Oct 29)'}",,ForSale,For Sale (Broker),539179,https://photos.zillowstatic.com/fp/98ab7c7b2895c2f5f278917766712625-zillow_web_48_23.jpg,Sprout Realty
380000,380000,"1112 Warrington Dr, Austin, TX 78753",1112 Warrington Dr,Austin,TX,78753,3,2,1276,30.362818,-97.67632,FALSE,"{'type': 'OPEN_HOUSE', 'text': 'Open: Thu. 9am-7pm'}",,ForSale,For Sale (Broker),369142,https://photos.zillowstatic.com/fp/98ab7c7b2895c2f5f278917766712625-zillow_web_48_23.jpg,"Opendoor Brokerage, LLC"
695000,695000,"8003 Castle Peake Trl, Austin, TX 78726",8003 Castle Peake Trl,Austin,TX,78726,4,3,3016,30.422737,-97.86203,FALSE,"{'type': 'PRICE_REDUCTION', 'text': '$20,000 (Oct 13)'}",,ForSale,For Sale (Broker),684093,https://photos.zillowstatic.com/fp/98ab7c7b2895c2f5f278917766712625-zillow_web_48_23.jpg,Advantage Austin Properties
474999,474999,"12324 Copperfield Dr, Austin, TX 78753",12324 Copperfield Dr,Austin,TX,78753,5,4,2702,30.394714,-97.661125,FALSE,"{'type': 'PRICE_REDUCTION', 'text': '$24,501 (Oct 4)'}",,ForSale,For Sale (Broker),463931,https://photos.zillowstatic.com/fp/98ab7c7b2895c2f5f278917766712625-zillow_web_48_23.jpg,Rivet Real Estate
430000,430000,"902 Acorn Oaks Dr, Austin, TX 78745",902 Acorn Oaks Dr,Austin,TX,78745,4,2,1495,30.19457,-97.794136,FALSE,"{'type': 'PRICE_REDUCTION', 'text': '$20,000 (Oct 25)'}",,ForSale,For Sale (Broker),418700,https://photos.zillowstatic.com/fp/98ab7c7b2895c2f5f278917766712625-zillow_web_48_23.jpg,Platinum Realty-Austin
346000,346000,"5413 Walnut Grove Dr, Austin, TX 78744",5413 Walnut Grove Dr,Austin,TX,78744,3,2,1451,30.190653,-97.73824,FALSE,"{'type': 'OPEN_HOUSE', 'text': 'Open: Thu. 9am-7pm'}",,ForSale,For Sale (Broker),334116,https://photos.zillowstatic.com/fp/98ab7c7b2895c2f5f278917766712625-zillow_web_48_23.jpg,"Opendoor Brokerage, LLC"
395000,395000,"3908 Alexandria Dr, Austin, TX 78749",3908 Alexandria Dr,Austin,TX,78749,2,2,1533,30.202354,-97.84515,FALSE,"{'type': 'PRICE_REDUCTION', 'text': '$20,000 (Nov 12)'}",,ForSale,For Sale (Broker),382900,https://photos.zillowstatic.com/fp/98ab7c7b2895c2f5f278917766712625-zillow_web_48_23.jpg,Bryan Bjerke
914999,914999,"4632 Moose Dr, Austin, TX 78749",4632 Moose Dr,Austin,TX,78749,5,3,3136,30.206306,-97.85589,FALSE,"{'type': '3D_HOME', 'text': '3D Tour'}",,ForSale,For Sale (Broker),902785,https://photos.zillowstatic.com/fp/98ab7c7b2895c2f5f278917766712625-zillow_web_48_23.jpg,Carpenter & Associates
499000,499000,"2410 Wilma Rudolph Rd, Austin, TX 78748",2410 Wilma Rudolph Rd,Austin,TX,78748,3,3,1909,30.155136,-97.842415,FALSE,"{'type': '3D_HOME', 'text': '3D Tour'}",,ForSale,For Sale (Broker),486472,https://photos.zillowstatic.com/fp/98ab7c7b2895c2f5f278917766712625-zillow_web_48_23.jpg,Orchard Brokerage
550000,550000,"2002 E 7th St APT 248, Austin, TX 78702",2002 E 7th St APT 248,Austin,TX,78702,2,2,1162,30.262154,-97.72039,FALSE,"{'type': 'PRICE_REDUCTION', 'text': '$65,000 (Oct 19)'}",,ForSale,For Sale (Broker),537300,https://photos.zillowstatic.com/fp/98ab7c7b2895c2f5f278917766712625-zillow_web_48_23.jpg,Keller Williams Realty
429900,429900,"11938 Rosethorn Dr, Austin, TX 78758",11938 Rosethorn Dr,Austin,TX,78758,4,2,1500,30.400602,-97.7,FALSE,"{'type': 'PRICE_REDUCTION', 'text': '$43,600 (Nov 11)'}",,ForSale,For Sale (Broker),417200,https://photos.zillowstatic.com/fp/98ab7c7b2895c2f5f278917766712625-zillow_web_48_23.jpg,Keller Williams Realty
425000,425000,"507 Sabine St APT 904, Austin, TX 78701",507 Sabine St APT 904,Austin,TX,78701,1,1,728,30.26525,-97.73629,FALSE,"{'type': 'PRICE_REDUCTION', 'text': '$30,000 (Oct 12)'}",,ForSale,For Sale (Broker),412121,https://photos.zillowstatic.com/fp/98ab7c7b2895c2f5f278917766712625-zillow_web_48_23.jpg,Realty Austin
383000,383000,"10606 Watchful Fox Dr, Austin, TX 78748",10606 Watchful Fox Dr,Austin,TX,78748,3,3,1092,30.157402,-97.81531,FALSE,"{'type': 'OPEN_HOUSE', 'text': 'Open: Thu. 9am-7pm'}",,ForSale,For Sale (Broker),370089,https://photos.zillowstatic.com/fp/98ab7c7b2895c2f5f278917766712625-zillow_web_48_23.jpg,"Opendoor Brokerage, LLC"
499000,499000,"11613 Harpster Bnd, Austin, TX 78717",11613 Harpster Bnd,Austin,TX,78717,3,3,2022,30.48969,-97.79884,FALSE,"{'type': 'PRICE_REDUCTION', 'text': '$36,000 (Nov 9)'}",,ForSale,For Sale (Broker),486000,https://photos.zillowstatic.com/fp/98ab7c7b2895c2f5f278917766712625-zillow_web_48_23.jpg,Chad Realty Group
664500,664500,"6810 Lexington Rd #A, Austin, TX 78757",6810 Lexington Rd #A,Austin,TX,78757,3,3,1201,30.350254,-97.74743,FALSE,"{'type': 'PRICE_REDUCTION', 'text': '$500 (Nov 1)'}",,ForSale,For Sale (Broker),651440,https://photos.zillowstatic.com/fp/98ab7c7b2895c2f5f278917766712625-zillow_web_48_23.jpg,"Listing Results, LLC"
490000,490000,"5308 Robinsdale Ln, Austin, TX 78723",5308 Robinsdale Ln,Austin,TX,78723,3,2,1140,30.3035,-97.687035,FALSE,"{'type': 'PRICE_REDUCTION', 'text': '$35,000 (Nov 9)'}",,ForSale,For Sale (Broker),476900,https://photos.zillowstatic.com/fp/98ab7c7b2895c2f5f278917766712625-zillow_web_48_23.jpg,Keller Williams Realty
695000,695000,"1311 Quail Park Dr, Austin, TX 78758",1311 Quail Park Dr,Austin,TX,78758,5,3,2143,30.36628,-97.708595,FALSE,"{'type': '3D_HOME', 'text': '3D Tour'}",,ForSale,For Sale (Broker),681600,https://photos.zillowstatic.com/fp/98ab7c7b2895c2f5f278917766712625-zillow_web_48_23.jpg,Realty Austin
595000,595000,"6917 William Wallace Way, Austin, TX 78754",6917 William Wallace Way,Austin,TX,78754,6,4,3968,30.35059,-97.60906,FALSE,"{'type': 'DAYS_ON', 'text': '8 days on Zillow'}",,ForSale,For Sale (Broker),581600,https://photos.zillowstatic.com/fp/98ab7c7b2895c2f5f278917766712625-zillow_web_48_23.jpg,"Compass RE Texas, LLC"
699900,699900,"11501 Knipp Cv, Austin, TX 78739",11501 Knipp Cv,Austin,TX,78739,4,3,3069,30.167358,-97.86866,FALSE,"{'type': 'PRICE_REDUCTION', 'text': '$25,100 (Oct 28)'}",,ForSale,For Sale (Broker),686400,https://photos.zillowstatic.com/fp/98ab7c7b2895c2f5f278917766712625-zillow_web_48_23.jpg,Godina Group Real Estate
495000,495000,"5912 Rubicon Run, Austin, TX 78745",5912 Rubicon Run,Austin,TX,78745,3,2,1285,30.214193,-97.796265,FALSE,"{'type': 'PRICE_REDUCTION', 'text': '$10,000 (Nov 3)'}",,ForSale,For Sale (Broker),481400,https://photos.zillowstatic.com/fp/98ab7c7b2895c2f5f278917766712625-zillow_web_48_23.jpg,"Opendoor Brokerage, LLC"
499000,499000,"11606 Elk Park Trl, Austin, TX 78759",11606 Elk Park Trl,Austin,TX,78759,4,2,1380,30.41344,-97.741875,FALSE,"{'type': 'PRICE_REDUCTION', 'text': '$26,000 (Nov 14)'}",,ForSale,For Sale (Broker),485390,https://photos.zillowstatic.com/fp/98ab7c7b2895c2f5f278917766712625-zillow_web_48_23.jpg,Gaston & Sheehan Realty
650000,650000,"2612 Lightfoot Trl, Austin, TX 78745",2612 Lightfoot Trl,Austin,TX,78745,5,3,2501,30.214739,-97.808365,FALSE,"{'type': '3D_HOME', 'text': '3D Tour'}",,ForSale,For Sale (Broker),636300,https://photos.zillowstatic.com/fp/98ab7c7b2895c2f5f278917766712625-zillow_web_48_23.jpg,NBC REALTY INC
479000,479000,"6444 Burnet Rd UNIT 302, Austin, TX 78757",6444 Burnet Rd UNIT 302,Austin,TX,78757,2,2,1200,30.340769,-97.73941,FALSE,"{'type': 'PRICE_REDUCTION', 'text': '$11,000 (Nov 14)'}",,ForSale,For Sale (Broker),465048,https://photos.zillowstatic.com/fp/98ab7c7b2895c2f5f278917766712625-zillow_web_48_23.jpg,Spyglass Realty
473000,473000,"4310 Eskew Dr, Austin, TX 78749",4310 Eskew Dr,Austin,TX,78749,3,2,1814,30.209385,-97.84738,FALSE,"{'type': 'OPEN_HOUSE', 'text': 'Open: Thu. 9am-7pm'}",,ForSale,For Sale (Broker),458786,https://photos.zillowstatic.com/fp/98ab7c7b2895c2f5f278917766712625-zillow_web_48_23.jpg,"Opendoor Brokerage, LLC"
699900,699900,"1207 Quail Park Dr, Austin, TX 78758",1207 Quail Park Dr,Austin,TX,78758,3,2,2038,30.36518,-97.70647,FALSE,"{'type': 'PRICE_REDUCTION', 'text': '$25,000 (Oct 18)'}",,ForSale,For Sale (Broker),685600,https://photos.zillowstatic.com/fp/98ab7c7b2895c2f5f278917766712625-zillow_web_48_23.jpg,Realty One Group Prosper
935000,935000,"2404 W 7th St, Austin, TX 78703",2404 W 7th St,Austin,TX,78703,3,2,1318,30.281675,-97.77348,FALSE,"{'type': 'PRICE_REDUCTION', 'text': '$140,000 (Sep 29)'}",,ForSale,For Sale (Broker),920700,https://photos.zillowstatic.com/fp/98ab7c7b2895c2f5f278917766712625-zillow_web_48_23.jpg,Casa Blanca Realty
625000,625000,"1216 Sue Ann Rose Dr, Austin, TX 78717",1216 Sue Ann Rose Dr,Austin,TX,78717,4,4,2652,30.486061,-97.72953,FALSE,"{'type': 'PRICE_REDUCTION', 'text': '$11,000 (Nov 8)'}",,ForSale,For Sale (Broker),610694,https://photos.zillowstatic.com/fp/98ab7c7b2895c2f5f278917766712625-zillow_web_48_23.jpg,"Renters Warehouse Texas, LLC"
414000,414000,"3711 Harpers Ferry Ln, Austin, TX 78749",3711 Harpers Ferry Ln,Austin,TX,78749,3,2,1380,30.208952,-97.83776,FALSE,"{'type': 'OPEN_HOUSE', 'text': 'Open: Thu. 9am-7pm'}",,ForSale,For Sale (Broker),399510,https://photos.zillowstatic.com/fp/98ab7c7b2895c2f5f278917766712625-zillow_web_48_23.jpg,"Opendoor Brokerage, LLC"
499000,499000,"9224 Partridge Cir, Austin, TX 78758",9224 Partridge Cir,Austin,TX,78758,5,3,2171,30.36956,-97.71186,FALSE,"{'type': 'PRICE_REDUCTION', 'text': '$51,000 (Oct 27)'}",,ForSale,For Sale (Broker),484400,https://photos.zillowstatic.com/fp/98ab7c7b2895c2f5f278917766712625-zillow_web_48_23.jpg,"Compass RE Texas, LLC"
540000,540000,"5506 Ledesma Rd, Austin, TX 78721",5506 Ledesma Rd,Austin,TX,78721,2,3,1523,30.269775,-97.68045,FALSE,"{'type': 'DAYS_ON', 'text': '4 days on Zillow'}",,ForSale,For Sale (Broker),525300,https://photos.zillowstatic.com/fp/98ab7c7b2895c2f5f278917766712625-zillow_web_48_23.jpg,The Real Estate Stop
346000,346000,"3421 Savage Springs Dr, Austin, TX 78754",3421 Savage Springs Dr,Austin,TX,78754,3,2,1424,30.360956,-97.639435,FALSE,"{'type': 'OPEN_HOUSE', 'text': 'Open: Thu. 9am-7pm'}",,ForSale,For Sale (Broker),331222,https://photos.zillowstatic.com/fp/98ab7c7b2895c2f5f278917766712625-zillow_web_48_23.jpg,"Opendoor Brokerage, LLC"
625000,625000,"15013 General Williamson Dr, Austin, TX 78734",15013 General Williamson Dr,Austin,TX,78734,3,2,1664,30.388638,-97.93004,FALSE,"{'type': 'DAYS_ON', 'text': '6 days on Zillow'}",,ForSale,For Sale (Broker),610200,https://photos.zillowstatic.com/fp/98ab7c7b2895c2f5f278917766712625-zillow_web_48_23.jpg,"Compass RE Texas, LLC"
550000,550000,"6702 Bryn Mawr Dr, Austin, TX 78723",6702 Bryn Mawr Dr,Austin,TX,78723,3,3,1486,30.313457,-97.671814,FALSE,"{'type': 'PRICE_REDUCTION', 'text': '$15,000 (Nov 10)'}",,ForSale,For Sale (Broker),535000,https://photos.zillowstatic.com/fp/98ab7c7b2895c2f5f278917766712625-zillow_web_48_23.jpg,Keller Williams Realty
799900,799900,"12300 Fairway Cv, Austin, TX 78732",12300 Fairway Cv,Austin,TX,78732,4,3,2052,30.363853,-97.89345,FALSE,"{'type': 'OPEN_HOUSE', 'text': 'Open: Sun. 12am-3pm'}",,ForSale,For Sale (Broker),784700,https://photos.zillowstatic.com/fp/98ab7c7b2895c2f5f278917766712625-zillow_web_48_23.jpg,"Compass RE Texas, LLC"
700000,700000,"3409 Eldorado Trl, Austin, TX 78739",3409 Eldorado Trl,Austin,TX,78739,3,2,2206,30.162693,-97.862404,FALSE,"{'type': 'DAYS_ON', 'text': '7 days on Zillow'}",,ForSale,For Sale (Broker),684800,https://photos.zillowstatic.com/fp/98ab7c7b2895c2f5f278917766712625-zillow_web_48_23.jpg,The Davis Company
396000,396000,"13207 Lamplight Village Ave, Austin, TX 78727",13207 Lamplight Village Ave,Austin,TX,78727,4,2,1520,30.425528,-97.69022,FALSE,"{'type': 'OPEN_HOUSE', 'text': 'Open: Thu. 9am-7pm'}",,ForSale,For Sale (Broker),380549,https://photos.zillowstatic.com/fp/98ab7c7b2895c2f5f278917766712625-zillow_web_48_23.jpg,"Opendoor Brokerage, LLC"
375000,375000,"9404 Longvale Dr, Austin, TX 78729",9404 Longvale Dr,Austin,TX,78729,3,2,1226,30.455334,-97.78301,FALSE,"{'type': 'PRICE_REDUCTION', 'text': '$24,000 (Nov 10)'}",,ForSale,For Sale (Broker),359500,https://photos.zillowstatic.com/fp/98ab7c7b2895c2f5f278917766712625-zillow_web_48_23.jpg,Spyglass Realty
499000,499000,"15014 Iowa St, Austin, TX 78734",15014 Iowa St,Austin,TX,78734,7,6,4500,30.394299,-97.92513,FALSE,"{'type': 'PRICE_REDUCTION', 'text': '$70,000 (Sep 26)'}",,ForSale,For Sale (Broker),483400,https://photos.zillowstatic.com/fp/98ab7c7b2895c2f5f278917766712625-zillow_web_48_23.jpg,Ruzicka Real Estate
445000,445000,"13517 Dulles Ave, Austin, TX 78729",13517 Dulles Ave,Austin,TX,78729,4,3,2020,30.45987,-97.75827,FALSE,"{'type': 'PRICE_REDUCTION', 'text': '$10,000 (Nov 7)'}",,ForSale,For Sale (Broker),429400,https://photos.zillowstatic.com/fp/98ab7c7b2895c2f5f278917766712625-zillow_web_48_23.jpg,"eXp Realty, LLC"
464000,464000,"7810 Finch Trl, Austin, TX 78745",7810 Finch Trl,Austin,TX,78745,3,2,1521,30.199842,-97.825066,FALSE,"{'type': 'OPEN_HOUSE', 'text': 'Open: Thu. 9am-7pm'}",,ForSale,For Sale (Broker),448359,https://photos.zillowstatic.com/fp/98ab7c7b2895c2f5f278917766712625-zillow_web_48_23.jpg,"Opendoor Brokerage, LLC"
585000,585000,"8502 Flagstone Dr, Austin, TX 78757",8502 Flagstone Dr,Austin,TX,78757,3,2,1276,30.369558,-97.73495,FALSE,"{'type': 'PRICE_REDUCTION', 'text': '$30,000 (Oct 24)'}",,ForSale,For Sale (Broker),569219,https://photos.zillowstatic.com/fp/98ab7c7b2895c2f5f278917766712625-zillow_web_48_23.jpg,"Hornsby Realty, LLC"
800000,800000,"1801 Holly St, Austin, TX 78702",1801 Holly St,Austin,TX,78702,5,2,2156,30.253593,-97.72732,FALSE,"{'type': 'PRICE_REDUCTION', 'text': '$100,000 (Oct 24)'}",,ForSale,For Sale (Broker),784217,https://photos.zillowstatic.com/fp/98ab7c7b2895c2f5f278917766712625-zillow_web_48_23.jpg,eXp Realty LLC
420000,420000,"13506 Briar Hollow Dr, Austin, TX 78729",13506 Briar Hollow Dr,Austin,TX,78729,3,2,1664,30.469788,-97.77693,FALSE,"{'type': 'OPEN_HOUSE', 'text': 'Open: Thu. 9am-7pm'}",,ForSale,For Sale (Broker),404070,https://photos.zillowstatic.com/fp/98ab7c7b2895c2f5f278917766712625-zillow_web_48_23.jpg,"Opendoor Brokerage, LLC"
592000,592000,"8143 Forest Mesa Dr, Austin, TX 78759",8143 Forest Mesa Dr,Austin,TX,78759,3,3,2150,30.37009,-97.74717,FALSE,"{'type': 'OPEN_HOUSE', 'text': 'Open: Thu. 9am-7pm'}",,ForSale,For Sale (Broker),576069,https://photos.zillowstatic.com/fp/98ab7c7b2895c2f5f278917766712625-zillow_web_48_23.jpg,"Opendoor Brokerage, LLC"
499900,499900,"11304 Parkfield Dr, Austin, TX 78758",11304 Parkfield Dr,Austin,TX,78758,3,2,1548,30.386745,-97.69546,FALSE,"{'type': 'PRICE_REDUCTION', 'text': '$20,100 (Oct 26)'}",,ForSale,For Sale (Broker),483903,https://photos.zillowstatic.com/fp/98ab7c7b2895c2f5f278917766712625-zillow_web_48_23.jpg,Austin Summit Group
595000,595000,"1472 Buffalo Gap Rd, Austin, TX 78734",1472 Buffalo Gap Rd,Austin,TX,78734,4,3,2572,30.38255,-97.956375,FALSE,"{'type': 'PRICE_REDUCTION', 'text': '$15,000 (Nov 10)'}",,ForSale,For Sale (Broker),579000,https://photos.zillowstatic.com/fp/98ab7c7b2895c2f5f278917766712625-zillow_web_48_23.jpg,JPAR Austin
693000,693000,"15901 Arla Cv, Austin, TX 78717",15901 Arla Cv,Austin,TX,78717,5,3,3231,30.49318,-97.739815,FALSE,"{'type': 'OPEN_HOUSE', 'text': 'Open: Thu. 9am-7pm'}",,ForSale,For Sale (Broker),676942,https://photos.zillowstatic.com/fp/98ab7c7b2895c2f5f278917766712625-zillow_web_48_23.jpg,"Opendoor Brokerage, LLC"
779000,779000,"112 Rainmaker Cv, Austin, TX 78737",112 Rainmaker Cv,Austin,TX,78737,4,4,2845,30.172808,-97.990166,FALSE,"{'type': 'VIDEO_WALKTHROUGH', 'text': 'Video Walkthrough'}",,ForSale,For Sale (Broker),762882,https://photos.zillowstatic.com/fp/98ab7c7b2895c2f5f278917766712625-zillow_web_48_23.jpg,RE/MAX GATEWAY
425000,425000,"8018 Rockwood Ln, Austin, TX 78757",8018 Rockwood Ln,Austin,TX,78757,3,1,872,30.363417,-97.73616,FALSE,"{'type': 'DAYS_ON', 'text': '5 days on Zillow'}",,ForSale,For Sale (Broker),408800,https://photos.zillowstatic.com/fp/98ab7c7b2895c2f5f278917766712625-zillow_web_48_23.jpg,RE/MAX 1
489000,489000,"1203 Lily Ter, Austin, TX 78741",1203 Lily Ter,Austin,TX,78741,3,2,1135,30.23335,-97.70236,FALSE,"{'type': 'PRICE_REDUCTION', 'text': '$10,000 (Nov 12)'}",,ForSale,For Sale (Broker),472700,,Realty Solutions
326000,326000,"405 Primrose St, Austin, TX 78753",405 Primrose St,Austin,TX,78753,2,2,1482,30.350052,-97.69796,FALSE,"{'type': 'OPEN_HOUSE', 'text': 'Open: Thu. 9am-7pm'}",,ForSale,For Sale (Broker),309535,https://photos.zillowstatic.com/fp/98ab7c7b2895c2f5f278917766712625-zillow_web_48_23.jpg,"Opendoor Brokerage, LLC"
411000,411000,"1745 Cricket Hollow Dr, Austin, TX 78758",1745 Cricket Hollow Dr,Austin,TX,78758,3,2,1459,30.388664,-97.7035,FALSE,"{'type': 'OPEN_HOUSE', 'text': 'Open: Thu. 9am-7pm'}",,ForSale,For Sale (Broker),394463,https://photos.zillowstatic.com/fp/98ab7c7b2895c2f5f278917766712625-zillow_web_48_23.jpg,"Opendoor Brokerage, LLC"
531000,531000,"11504 Oak View Dr, Austin, TX 78759",11504 Oak View Dr,Austin,TX,78759,3,2,1435,30.422724,-97.76584,FALSE,"{'type': 'OPEN_HOUSE', 'text': 'Open: Thu. 9am-7pm'}",,ForSale,For Sale (Broker),514406,https://photos.zillowstatic.com/fp/98ab7c7b2895c2f5f278917766712625-zillow_web_48_23.jpg,"Opendoor Brokerage, LLC"
449000,449000,"11607 Hidden Quail Dr, Austin, TX 78758",11607 Hidden Quail Dr,Austin,TX,78758,3,2,1410,30.39217,-97.69963,FALSE,"{'type': '3D_HOME', 'text': '3D Tour'}",,ForSale,For Sale (Broker),432100,https://photos.zillowstatic.com/fp/98ab7c7b2895c2f5f278917766712625-zillow_web_48_23.jpg,Orchard Brokerage
625000,625000,"4508 Bull Creek Rd, Austin, TX 78731",4508 Bull Creek Rd,Austin,TX,78731,3,2,1295,30.321531,-97.75324,FALSE,"{'type': 'PRICE_REDUCTION', 'text': '$10,000 (Nov 14)'}",,ForSale,For Sale (Broker),608011,https://photos.zillowstatic.com/fp/98ab7c7b2895c2f5f278917766712625-zillow_web_48_23.jpg,Keller Williams Realty
486000,486000,"2813 Sissinghurst Dr, Austin, TX 78745",2813 Sissinghurst Dr,Austin,TX,78745,3,3,1681,30.2118,-97.81623,FALSE,"{'type': 'OPEN_HOUSE', 'text': 'Open: Thu. 9am-7pm'}",,ForSale,For Sale (Broker),468709,https://photos.zillowstatic.com/fp/98ab7c7b2895c2f5f278917766712625-zillow_web_48_23.jpg,"Opendoor Brokerage, LLC"
429000,429000,"1400 Huckleberry Ln, Austin, TX 78748",1400 Huckleberry Ln,Austin,TX,78748,3,3,1707,30.175053,-97.817,FALSE,"{'type': 'OPEN_HOUSE', 'text': 'Open: Thu. 9am-7pm'}",,ForSale,For Sale (Broker),411594,https://photos.zillowstatic.com/fp/98ab7c7b2895c2f5f278917766712625-zillow_web_48_23.jpg,"Opendoor Brokerage, LLC"
584000,584000,"1908 Quivira Rd, Austin, TX 78745",1908 Quivira Rd,Austin,TX,78745,4,3,3147,30.191334,-97.81179,FALSE,"{'type': '3D_HOME', 'text': '3D Tour'}",,ForSale,For Sale (Broker),566500,https://photos.zillowstatic.com/fp/98ab7c7b2895c2f5f278917766712625-zillow_web_48_23.jpg,Orchard Brokerage
1399900,1399900,"6809 Mesa Dr, Austin, TX 78731",6809 Mesa Dr,Austin,TX,78731,5,3,2899,30.357407,-97.76753,FALSE,"{'type': 'PRICE_REDUCTION', 'text': '$50,000 (Nov 16)'}",,ForSale,For Sale (Broker),1382100,https://photos.zillowstatic.com/fp/98ab7c7b2895c2f5f278917766712625-zillow_web_48_23.jpg,Keller Williams Realty
758000,758000,"7409 Shoal Creek Blvd, Austin, TX 78757",7409 Shoal Creek Blvd,Austin,TX,78757,3,2,1786,30.353283,-97.74024,FALSE,"{'type': 'OPEN_HOUSE', 'text': 'Open: Thu. 9am-7pm'}",,ForSale,For Sale (Broker),739808,https://photos.zillowstatic.com/fp/98ab7c7b2895c2f5f278917766712625-zillow_web_48_23.jpg,"Opendoor Brokerage, LLC"
537000,537000,"11609 Eubank Dr, Austin, TX 78758",11609 Eubank Dr,Austin,TX,78758,3,2,2147,30.3872,-97.687004,FALSE,"{'type': 'OPEN_HOUSE', 'text': 'Open: Thu. 9am-7pm'}",,ForSale,For Sale (Broker),518110,https://photos.zillowstatic.com/fp/98ab7c7b2895c2f5f278917766712625-zillow_web_48_23.jpg,"Opendoor Brokerage, LLC"
474000,474000,"5207 Hedgewood Dr, Austin, TX 78745",5207 Hedgewood Dr,Austin,TX,78745,4,3,1450,30.21057,-97.77447,FALSE,"{'type': 'OPEN_HOUSE', 'text': 'Open: Thu. 9am-7pm'}",,ForSale,For Sale (Broker),454831,https://photos.zillowstatic.com/fp/98ab7c7b2895c2f5f278917766712625-zillow_web_48_23.jpg,"Opendoor Brokerage, LLC"
900000,900000,"5608 Medicine Creek Dr, Austin, TX 78735",5608 Medicine Creek Dr,Austin,TX,78735,4,4,3480,30.256865,-97.88369,FALSE,"{'type': 'DAYS_ON', 'text': '7 days on Zillow'}",,ForSale,For Sale (Broker),880400,,Keller Williams Realty Austin
770000,770000,"9302 Caracas Dr, Austin, TX 78733",9302 Caracas Dr,Austin,TX,78733,4,3,2040,30.334763,-97.8586,FALSE,"{'type': '3D_HOME', 'text': '3D Tour'}",,ForSale,For Sale (Broker),749400,https://photos.zillowstatic.com/fp/98ab7c7b2895c2f5f278917766712625-zillow_web_48_23.jpg,Orchard Brokerage
789000,789000,"1619 Woodwind Ln, Austin, TX 78758",1619 Woodwind Ln,Austin,TX,78758,3,3,2360,30.395985,-97.69801,FALSE,"{'type': 'OPEN_HOUSE', 'text': 'Open: Sat. 11am-2pm'}",,ForSale,For Sale (Broker),767800,https://photos.zillowstatic.com/fp/98ab7c7b2895c2f5f278917766712625-zillow_web_48_23.jpg,Urbanspace
699000,699000,"1605 Rutland Dr, Austin, TX 78758",1605 Rutland Dr,Austin,TX,78758,,0,1958,30.371239,-97.71014,FALSE,"{'type': 'PRICE_REDUCTION', 'text': '$36,000 (Nov 5)'}",,ForSale,For Sale (Broker),677156,https://photos.zillowstatic.com/fp/98ab7c7b2895c2f5f278917766712625-zillow_web_48_23.jpg,"Local Life Realty, LLC"
657000,657000,"8612 Cobblestone, Austin, TX 78735",8612 Cobblestone,Austin,TX,78735,4,2,2456,30.25616,-97.88676,FALSE,"{'type': 'OPEN_HOUSE', 'text': 'Open: Thu. 9am-7pm'}",,ForSale,For Sale (Broker),635099,https://photos.zillowstatic.com/fp/98ab7c7b2895c2f5f278917766712625-zillow_web_48_23.jpg,"Opendoor Brokerage, LLC"
350000,350000,"14707 Highsmith St, Austin, TX 78725",14707 Highsmith St,Austin,TX,78725,3,3,1748,30.236662,-97.58464,FALSE,"{'type': 'DAYS_ON', 'text': '1 day on Zillow'}",,ForSale,For Sale (Broker),328000,https://photos.zillowstatic.com/fp/98ab7c7b2895c2f5f278917766712625-zillow_web_48_23.jpg,"Opendoor Brokerage, LLC"
749900,749900,"400 W 37th St, Austin, TX 78705",400 W 37th St,Austin,TX,78705,2,2,1423,30.301344,-97.7368,FALSE,"{'type': 'PRICE_REDUCTION', 'text': '$25,000 (Nov 10)'}",,ForSale,For Sale (Broker),727661,https://photos.zillowstatic.com/fp/98ab7c7b2895c2f5f278917766712625-zillow_web_48_23.jpg,Keller Williams - Lake Travis
949000,949000,"3807 Oakmont Blvd, Austin, TX 78731",3807 Oakmont Blvd,Austin,TX,78731,3,4,1786,30.311413,-97.75355,FALSE,"{'type': 'OPEN_HOUSE', 'text': 'Open: Sat. 12-3pm'}",,ForSale,For Sale (Broker),926600,https://photos.zillowstatic.com/fp/98ab7c7b2895c2f5f278917766712625-zillow_web_48_23.jpg,"Compass RE Texas, LLC"
779000,779000,"3823 Steck Ave, Austin, TX 78759",3823 Steck Ave,Austin,TX,78759,3,3,2282,30.3727,-97.75027,FALSE,"{'type': 'DAYS_ON', 'text': '5 days on Zillow'}",,ForSale,For Sale (Broker),755900,https://photos.zillowstatic.com/fp/98ab7c7b2895c2f5f278917766712625-zillow_web_48_23.jpg,Classic Realty
899000,899000,"613 Zennia St, Austin, TX 78751",613 Zennia St,Austin,TX,78751,4,3,2166,30.318794,-97.72918,FALSE,"{'type': 'PRICE_REDUCTION', 'text': '$71,000 (Nov 7)'}",,ForSale,For Sale (Broker),874481,https://photos.zillowstatic.com/fp/98ab7c7b2895c2f5f278917766712625-zillow_web_48_23.jpg,"eXp Realty, LLC"
799000,799000,"4414 Avenue D, Austin, TX 78751",4414 Avenue D,Austin,TX,78751,3,2,1238,30.309103,-97.72966,FALSE,"{'type': 'DAYS_ON', 'text': '7 days on Zillow'}",,ForSale,For Sale (Broker),774400,https://photos.zillowstatic.com/fp/98ab7c7b2895c2f5f278917766712625-zillow_web_48_23.jpg,Team Price Real Estate
544000,544000,"6509 Woodcrest Dr, Austin, TX 78759",6509 Woodcrest Dr,Austin,TX,78759,3,2,1479,30.424255,-97.7614,FALSE,"{'type': 'OPEN_HOUSE', 'text': 'Open: Thu. 9am-7pm'}",,ForSale,For Sale (Broker),519367,https://photos.zillowstatic.com/fp/98ab7c7b2895c2f5f278917766712625-zillow_web_48_23.jpg,"Opendoor Brokerage, LLC"
998000,998000,"1502 Hillmont St, Austin, TX 78704",1502 Hillmont St,Austin,TX,78704,2,2,1756,30.260578,-97.76065,FALSE,"{'type': 'PRICE_REDUCTION', 'text': '$127,000 (Nov 3)'}",,ForSale,For Sale (Broker),973050,https://photos.zillowstatic.com/fp/98ab7c7b2895c2f5f278917766712625-zillow_web_48_23.jpg,"Compass RE Texas, LLC"
579000,579000,"5004 Broken Bow Pass, Austin, TX 78745",5004 Broken Bow Pass,Austin,TX,78745,3,2,1628,30.224596,-97.79858,FALSE,"{'type': 'PRICE_REDUCTION', 'text': '$20,000 (Nov 10)'}",,ForSale,For Sale (Broker),553826,https://photos.zillowstatic.com/fp/98ab7c7b2895c2f5f278917766712625-zillow_web_48_23.jpg,Realty Austin
899000,899000,"6901 Barstow Ct, Austin, TX 78749",6901 Barstow Ct,Austin,TX,78749,4,4,2824,30.209715,-97.88918,FALSE,"{'type': '3D_HOME', 'text': '3D Tour'}",,ForSale,For Sale (Broker),873700,https://photos.zillowstatic.com/fp/98ab7c7b2895c2f5f278917766712625-zillow_web_48_23.jpg,Realty Austin
749000,749000,"902 Valley View Dr, Austin, TX 78733",902 Valley View Dr,Austin,TX,78733,3,2,1643,30.335976,-97.87359,FALSE,"{'type': 'PRICE_REDUCTION', 'text': '$50,000 (Nov 7)'}",,ForSale,For Sale (Broker),722100,,"eXp Realty, LLC"
674900,674900,"1705 Cedar Bend Dr, Austin, TX 78758",1705 Cedar Bend Dr,Austin,TX,78758,3,2,2485,30.407877,-97.6928,FALSE,"{'type': '3D_HOME', 'text': '3D Tour'}",,ForSale,For Sale (Broker),647800,https://photos.zillowstatic.com/fp/98ab7c7b2895c2f5f278917766712625-zillow_web_48_23.jpg,Orchard Brokerage
499900,499900,"5603 Purple Sage Dr, Austin, TX 78724",5603 Purple Sage Dr,Austin,TX,78724,,0,1820,30.309175,-97.65488,FALSE,"{'type': 'DAYS_ON', 'text': '5 days on Zillow'}",,ForSale,For Sale (Broker),472610,https://photos.zillowstatic.com/fp/98ab7c7b2895c2f5f278917766712625-zillow_web_48_23.jpg,Keller Williams Realty
1150000,1150000,"12506 Verandah Ct, Austin, TX 78726",12506 Verandah Ct,Austin,TX,78726,4,4,3465,30.425669,-97.85841,FALSE,"{'type': 'DAYS_ON', 'text': '33 days on Zillow'}",,ForSale,For Sale (Broker),1121250,https://photos.zillowstatic.com/fp/98ab7c7b2895c2f5f278917766712625-zillow_web_48_23.jpg,"All Streets Realty, LLC"
888000,888000,"1600 Susan Dr, Austin, TX 78734",1600 Susan Dr,Austin,TX,78734,3,3,3183,30.377485,-97.94045,FALSE,"{'type': '3D_HOME', 'text': '3D Tour'}",,ForSale,For Sale (Broker),858400,https://photos.zillowstatic.com/fp/98ab7c7b2895c2f5f278917766712625-zillow_web_48_23.jpg,Coldwell Banker Realty
995000,995000,"903 Plateau Cir, Austin, TX 78745",903 Plateau Cir,Austin,TX,78745,4,4,2725,30.221882,-97.77757,FALSE,"{'type': 'DAYS_ON', 'text': '174 days on Zillow'}",,ForSale,New Construction,964200,https://photos.zillowstatic.com/fp/98ab7c7b2895c2f5f278917766712625-zillow_web_48_23.jpg,Soar Investment Group
1200000,1200000,"7308 Doswell Ln, Austin, TX 78739",7308 Doswell Ln,Austin,TX,78739,4,4,3386,30.192785,-97.904495,FALSE,"{'type': 'PRICE_REDUCTION', 'text': '$50,000 (Oct 19)'}",,ForSale,For Sale (Broker),1165900,https://photos.zillowstatic.com/fp/98ab7c7b2895c2f5f278917766712625-zillow_web_48_23.jpg,Atlas Realty
999999,999999,"107 W Concord Cir, Austin, TX 78737",107 W Concord Cir,Austin,TX,78737,6,3,2891,30.14225,-97.96204,FALSE,"{'type': 'PRICE_REDUCTION', 'text': '$100,001 (Nov 13)'}",,ForSale,For Sale (Broker),959487,https://photos.zillowstatic.com/fp/98ab7c7b2895c2f5f278917766712625-zillow_web_48_23.jpg,JBGoodwin REALTORS WL
999000,999000,"3100 Carlisle Dr, Austin, TX 78757",3100 Carlisle Dr,Austin,TX,78757,3,4,2202,30.346334,-97.74808,FALSE,"{'type': 'OPEN_HOUSE', 'text': 'Open: Sat. 10am-12pm'}",,ForSale,For Sale (Broker),955600,https://photos.zillowstatic.com/fp/98ab7c7b2895c2f5f278917766712625-zillow_web_48_23.jpg,"Local Life Realty, LLC"
749800,749800,"2008 Canterbury St, Austin, TX 78702",2008 Canterbury St,Austin,TX,78702,3,1,1832,30.25487,-97.723305,FALSE,"{'type': 'PRICE_REDUCTION', 'text': '$115,200 (Nov 14)'}",,ForSale,For Sale (Broker),703893,https://photos.zillowstatic.com/fp/98ab7c7b2895c2f5f278917766712625-zillow_web_48_23.jpg,"Mundo & Lighthouse, LLC"
309000,309000,"14605 Rumfeldt St, Austin, TX 78725",14605 Rumfeldt St,Austin,TX,78725,3,2,1122,30.237825,-97.58538,FALSE,"{'type': 'TIME_ON_INFO', 'text': '7 hours ago', 'data': {'isFresh': False}}",,ForSale,For Sale (Broker),259800,https://photos.zillowstatic.com/fp/98ab7c7b2895c2f5f278917766712625-zillow_web_48_23.jpg,Keller Williams Realty
1250000,1250000,"100 E 51st St APT 4, Austin, TX 78751",100 E 51st St APT 4,Austin,TX,78751,3,3,2300,30.315948,-97.72345,FALSE,"{'type': 'DAYS_ON', 'text': '6 days on Zillow'}",,ForSale,For Sale (Broker),1200200,https://photos.zillowstatic.com/fp/98ab7c7b2895c2f5f278917766712625-zillow_web_48_23.jpg,Fauve House
675000,675000,"4105 Canyon Glen Cir, Austin, TX 78732",4105 Canyon Glen Cir,Austin,TX,78732,4,3,2734,30.380358,-97.8879,FALSE,"{'type': 'OPEN_HOUSE', 'text': 'Open: Sun. 11am-2pm'}",,ForSale,For Sale (Broker),615500,https://photos.zillowstatic.com/fp/98ab7c7b2895c2f5f278917766712625-zillow_web_48_23.jpg,All City Real Estate Ltd. Co
1110000,1110000,"1500 Summit St APT 5, Austin, TX 78741",1500 Summit St APT 5,Austin,TX,78741,3,4,2488,30.243069,-97.73448,FALSE,"{'type': 'VIDEO_WALKTHROUGH', 'text': 'Video Walkthrough'}",,ForSale,For Sale (Broker),1049879,https://photos.zillowstatic.com/fp/98ab7c7b2895c2f5f278917766712625-zillow_web_48_23.jpg,Volt Realty
1395000,1395000,"10700 Ashton Cv, Austin, TX 78750",10700 Ashton Cv,Austin,TX,78750,4,3,2738,30.431347,-97.79995,FALSE,"{'type': 'DAYS_ON', 'text': '8 days on Zillow'}",,ForSale,For Sale (Broker),1333305,https://photos.zillowstatic.com/fp/98ab7c7b2895c2f5f278917766712625-zillow_web_48_23.jpg,TEAM ELITE GROUP
1477000,1477000,"3715 Josh Ln, Austin, TX 78730",3715 Josh Ln,Austin,TX,78730,5,4,3981,30.363314,-97.86027,FALSE,"{'type': 'DAYS_ON', 'text': '57 days on Zillow'}",,ForSale,For Sale (Broker),1414500,https://photos.zillowstatic.com/fp/98ab7c7b2895c2f5f278917766712625-zillow_web_48_23.jpg,REALM Real Estate Professional
1745000,1745000,"706 Oakland Ave, Austin, TX 78703",706 Oakland Ave,Austin,TX,78703,4,2,3032,30.276114,-97.75995,FALSE,"{'type': 'OPEN_HOUSE', 'text': 'Open: Sun. 2-4pm'}",,ForSale,For Sale (Broker),1676800,https://photos.zillowstatic.com/fp/98ab7c7b2895c2f5f278917766712625-zillow_web_48_23.jpg,Moreland Properties
2195000,2195000,"8400 Denali Pkwy, Austin, TX 78726",8400 Denali Pkwy,Austin,TX,78726,4,5,5134,30.427544,-97.85742,FALSE,"{'type': 'DAYS_ON', 'text': '5 days on Zillow'}",,ForSale,For Sale (Broker),2126014,https://photos.zillowstatic.com/fp/98ab7c7b2895c2f5f278917766712625-zillow_web_48_23.jpg,Dave Dacko
565850,565850,"2213 Poquito St UNIT 125, Austin, TX 78722",2213 Poquito St UNIT 125,Austin,TX,78722,2,2,1128,30.28312,-97.72075,FALSE,"{'type': 'DAYS_ON', 'text': '4 days on Zillow'}",,ForSale,For Sale (Broker),489600,https://photos.zillowstatic.com/fp/98ab7c7b2895c2f5f278917766712625-zillow_web_48_23.jpg,Team Price Real Estate
1697000,1697000,"1316 Wilderness Dr, Austin, TX 78746",1316 Wilderness Dr,Austin,TX,78746,5,4,3506,30.267885,-97.800415,FALSE,"{'type': 'DAYS_ON', 'text': '62 days on Zillow'}",,ForSale,For Sale (Broker),1617500,https://photos.zillowstatic.com/fp/98ab7c7b2895c2f5f278917766712625-zillow_web_48_23.jpg,Coldwell Banker Realty
99900,99900,"The Dakota Plan, Titan Factory Direct - Austin","The Dakota Plan, Titan Factory Direct - Austin",Austin,TX,78741,3,3,1577,30.21221,-97.70791,FALSE,"{'type': 'OPEN_HOUSE', 'text': 'Open: Monday - Saturday...'}",,ForSale,New Construction,0,,
2325000,2325000,"2210 W 49th St, Austin, TX 78756",2210 W 49th St,Austin,TX,78756,5,4,3474,30.321577,-97.74177,FALSE,"{'type': 'DAYS_ON', 'text': '152 days on Zillow'}",,ForSale,New Construction,2206800,https://photos.zillowstatic.com/fp/98ab7c7b2895c2f5f278917766712625-zillow_web_48_23.jpg,Realty Austin
119900,119900,"The Casablanca Plan, Titan Factory Direct - Austin","The Casablanca Plan, Titan Factory Direct - Austin",Austin,TX,78741,2,1,850,30.21221,-97.70791,FALSE,"{'type': 'OPEN_HOUSE', 'text': 'Open: Monday - Saturday...'}",,ForSale,New Construction,0,,
140000,140000,"233 Nutterbowl Rd, Terlingua, TX 78756",233 Nutterbowl Rd,Terlingua,TX,78756,,,,,,FALSE,"{'type': 'DAYS_ON', 'text': '112 days on Zillow'}",,ForSale,For Sale (Broker),0,,Fathom Realty
2995000,2995000,"3209 Rustic River Cv, Austin, TX 78746",3209 Rustic River Cv,Austin,TX,78746,6,6,7000,30.31849,-97.781075,FALSE,"{'type': 'DAYS_ON', 'text': '12 days on Zillow'}",,ForSale,For Sale (Broker),2850080,,Keller Williams Realty Austin
3850000,3850000,"312 W Monroe St, Austin, TX 78704",312 W Monroe St,Austin,TX,78704,4,4,3107,30.249123,-97.75348,FALSE,"{'type': 'OPEN_HOUSE', 'text': 'Open: Sat. 1-4pm'}",,ForSale,New Construction,3701403,https://photos.zillowstatic.com/fp/98ab7c7b2895c2f5f278917766712625-zillow_web_48_23.jpg,"The Leaders Realty, LLC"
149900,149900,"The Talladega Plan, Titan Factory Direct - Austin","The Talladega Plan, Titan Factory Direct - Austin",Austin,TX,78741,4,2,2305,30.21221,-97.70791,FALSE,"{'type': 'OPEN_HOUSE', 'text': 'Open: Monday - Saturday...'}",,ForSale,New Construction,0,,
150000,150000,"Tbd Von Quintus Rd, Austin, TX 78719",Tbd Von Quintus Rd,Austin,TX,78719,,0,,30.103233,-97.66985,FALSE,"{'type': 'PRICE_REDUCTION', 'text': '$25,000 (Nov 1)'}",,ForSale,For Sale (Broker),0,,"Countywide Realty, Lp"
668854,668854,"2613 Dryden St, Austin, TX 78748",2613 Dryden St,Austin,TX,78748,4,3,2023,30.16992,-97.837814,FALSE,"{'type': 'PRICE_REDUCTION', 'text': '$146 (Nov 14)'}",,ForSale,For Sale (Broker),502900,,
175000,175000,"9313 Independence Loop, Austin, TX 78748",9313 Independence Loop,Austin,TX,78748,0,0,,30.174772,-97.813126,FALSE,"{'type': 'DAYS_ON', 'text': '194 days on Zillow'}",,ForSale,For Sale (Broker),0,https://photos.zillowstatic.com/fp/98ab7c7b2895c2f5f278917766712625-zillow_web_48_23.jpg,Realty Austin
195000,195000,"12166 Metric Blvd APT 209, Austin, TX 78758",12166 Metric Blvd APT 209,Austin,TX,78758,1,1,516,30.407125,-97.698135,FALSE,"{'type': '3D_HOME', 'text': '3D Tour'}",,ForSale,For Sale (Broker),0,https://photos.zillowstatic.com/fp/98ab7c7b2895c2f5f278917766712625-zillow_web_48_23.jpg,Redfin Corporation
195000,195000,"2124 Burton Dr APT 140, Austin, TX 78741",2124 Burton Dr APT 140,Austin,TX,78741,1,1,714,30.232576,-97.73261,FALSE,"{'type': 'PRICE_REDUCTION', 'text': '$14,900 (Oct 13)'}",,ForSale,For Sale (Broker),0,https://photos.zillowstatic.com/fp/98ab7c7b2895c2f5f278917766712625-zillow_web_48_23.jpg,Tower Realty Austin
4950000,4950000,"70 Rainey St #2906, Austin, TX 78701",70 Rainey St #2906,Austin,TX,78701,3,3,2179,30.258486,-97.739174,FALSE,"{'type': 'DAYS_ON', 'text': '37 days on Zillow'}",,ForSale,For Sale (Broker),4753653,,RE/MAX Posh Properties
207750,207750,"12166 Metric Blvd APT 220, Austin, TX 78758",12166 Metric Blvd APT 220,Austin,TX,78758,1,1,559,30.407125,-97.698135,FALSE,"{'type': 'DAYS_ON', 'text': '4 days on Zillow'}",,ForSale,For Sale (Broker),0,https://photos.zillowstatic.com/fp/98ab7c7b2895c2f5f278917766712625-zillow_web_48_23.jpg,Four Directions Realty LLC
210000,210000,"12166 Metric Blvd APT 362, Austin, TX 78758",12166 Metric Blvd APT 362,Austin,TX,78758,1,1,559,30.407125,-97.698135,FALSE,"{'type': 'PRICE_REDUCTION', 'text': '$10,000 (Oct 26)'}",,ForSale,For Sale (Broker),0,https://photos.zillowstatic.com/fp/98ab7c7b2895c2f5f278917766712625-zillow_web_48_23.jpg,Cornwall Properties
220000,220000,"6903 Deatonhill Dr APT 39, Austin, TX 78745",6903 Deatonhill Dr APT 39,Austin,TX,78745,1,1,626,30.208742,-97.817375,FALSE,"{'type': '3D_HOME', 'text': '3D Tour'}",,ForSale,For Sale (Broker),0,https://photos.zillowstatic.com/fp/98ab7c7b2895c2f5f278917766712625-zillow_web_48_23.jpg,Redfin Corporation
245000,245000,"909 Reinli St APT 245, Austin, TX 78751",909 Reinli St APT 245,Austin,TX,78751,1,1,582,30.318968,-97.71036,FALSE,"{'type': 'DAYS_ON', 'text': '5 days on Zillow'}",,ForSale,For Sale (Broker),0,https://photos.zillowstatic.com/fp/98ab7c7b2895c2f5f278917766712625-zillow_web_48_23.jpg,Realty Austin
249000,249000,"6907 Old Post Loop, Austin, TX 78744",6907 Old Post Loop,Austin,TX,78744,2,2,1222,30.178223,-97.75417,FALSE,"{'type': 'PRICE_REDUCTION', 'text': '$6,000 (Oct 27)'}",,ForSale,For Sale (Broker),0,https://photos.zillowstatic.com/fp/98ab7c7b2895c2f5f278917766712625-zillow_web_48_23.jpg,Douglas Elliman Real Estate
249900,249900,"1010 W Rundberg Ln APT 10, Austin, TX 78758",1010 W Rundberg Ln APT 10,Austin,TX,78758,2,2,1170,30.365484,-97.70154,FALSE,"{'type': 'PRICE_REDUCTION', 'text': '$25,100 (Sep 29)'}",,ForSale,For Sale (Broker),0,https://photos.zillowstatic.com/fp/98ab7c7b2895c2f5f278917766712625-zillow_web_48_23.jpg,"Compass RE Texas, LLC"
250000,250000,"114 E 31st St APT 107, Austin, TX 78705",114 E 31st St APT 107,Austin,TX,78705,1,1,582,30.294844,-97.73634,FALSE,"{'type': 'DAYS_ON', 'text': '7 days on Zillow'}",,ForSale,For Sale (Broker),0,https://photos.zillowstatic.com/fp/98ab7c7b2895c2f5f278917766712625-zillow_web_48_23.jpg,Pure Gold Realty
250000,250000,"5103 Rob Scott St, Austin, TX 78721",5103 Rob Scott St,Austin,TX,78721,0,0,,30.28144,-97.67922,FALSE,"{'type': 'DAYS_ON', 'text': '30 days on Zillow'}",,ForSale,For Sale (Broker),0,https://photos.zillowstatic.com/fp/98ab7c7b2895c2f5f278917766712625-zillow_web_48_23.jpg,"Compass RE Texas, LLC"
250000,250000,"2408 Longview St APT 209, Austin, TX 78705",2408 Longview St APT 209,Austin,TX,78705,2,1,720,30.288511,-97.75099,FALSE,"{'type': 'PRICE_REDUCTION', 'text': '$25,000 (Nov 1)'}",,ForSale,For Sale (Broker),0,https://photos.zillowstatic.com/fp/98ab7c7b2895c2f5f278917766712625-zillow_web_48_23.jpg,1836 Realty & Property Mgmt
250000,250000,"2600 Penny Ln APT 110, Austin, TX 78757",2600 Penny Ln APT 110,Austin,TX,78757,2,2,838,30.365541,-97.73019,FALSE,"{'type': 'DAYS_ON', 'text': '68 days on Zillow'}",,ForSale,For Sale (Broker),0,https://photos.zillowstatic.com/fp/98ab7c7b2895c2f5f278917766712625-zillow_web_48_23.jpg,Kuper Sotheby's Int. Realty
255000,255000,"2401 Manor Rd APT 111, Austin, TX 78722",2401 Manor Rd APT 111,Austin,TX,78722,2,1,800,30.284473,-97.7171,FALSE,"{'type': 'PRICE_REDUCTION', 'text': '$10,000 (Oct 31)'}",,ForSale,For Sale (Broker),0,https://photos.zillowstatic.com/fp/98ab7c7b2895c2f5f278917766712625-zillow_web_48_23.jpg,Keller Williams Realty
265000,265000,"7685 Northcross Dr UNIT 700, Austin, TX 78757",7685 Northcross Dr UNIT 700,Austin,TX,78757,1,1,650,30.354708,-97.735306,FALSE,"{'type': 'TIME_ON_INFO', 'text': '5 hours ago', 'data': {'isFresh': False}}",,ForSale,For Sale (Broker),0,https://photos.zillowstatic.com/fp/98ab7c7b2895c2f5f278917766712625-zillow_web_48_23.jpg,DEN Property Group
265000,265000,"3110 Red River St #D-107, Austin, TX 78705",3110 Red River St #D-107,Austin,TX,78705,1,1,391,30.29043,-97.72702,FALSE,"{'type': 'DAYS_ON', 'text': '14 days on Zillow'}",,ForSale,For Sale (Broker),0,https://photos.zillowstatic.com/fp/98ab7c7b2895c2f5f278917766712625-zillow_web_48_23.jpg,Pauly Presley Realty
275000,275000,"11408 Darrin Ln, Del Valle, TX 78617",11408 Darrin Ln,Del Valle,TX,78617,3,2,1032,30.160402,-97.64999,FALSE,"{'type': 'PRICE_REDUCTION', 'text': '$9,100 (Nov 8)'}",,ForSale,For Sale (Broker),0,https://photos.zillowstatic.com/fp/98ab7c7b2895c2f5f278917766712625-zillow_web_48_23.jpg,JPAR Austin
275000,275000,"4704 Valcour Bay Ln, Austin, TX 78754",4704 Valcour Bay Ln,Austin,TX,78754,3,2,1230,30.335884,-97.64844,FALSE,"{'type': 'DAYS_ON', 'text': '5 days on Zillow'}",,ForSale,For Sale (Broker),0,https://photos.zillowstatic.com/fp/98ab7c7b2895c2f5f278917766712625-zillow_web_48_23.jpg,JBGoodwin REALTORS NW
275000,275000,"4407 Magin Meadow Dr, Austin, TX 78744",4407 Magin Meadow Dr,Austin,TX,78744,3,2,1456,30.179047,-97.75967,FALSE,"{'type': 'DAYS_ON', 'text': '4 days on Zillow'}",,ForSale,For Sale (Broker),0,https://photos.zillowstatic.com/fp/98ab7c7b2895c2f5f278917766712625-zillow_web_48_23.jpg,Realty Austin
279900,279900,"6402 Ponca St, Austin, TX 78741",6402 Ponca St,Austin,TX,78741,2,1,936,30.2368,-97.69403,FALSE,"{'type': 'PRICE_REDUCTION', 'text': '$10,000 (Oct 25)'}",,ForSale,For Sale (Broker),0,https://photos.zillowstatic.com/fp/98ab7c7b2895c2f5f278917766712625-zillow_web_48_23.jpg,All City Real Estate Ltd. Co
280000,280000,"1411 Gracy Farms Ln APT 112, Austin, TX 78758",1411 Gracy Farms Ln APT 112,Austin,TX,78758,2,2,829,30.395649,-97.69271,FALSE,"{'type': 'PRICE_REDUCTION', 'text': '$8,500 (Oct 27)'}",,ForSale,For Sale (Broker),0,https://photos.zillowstatic.com/fp/98ab7c7b2895c2f5f278917766712625-zillow_web_48_23.jpg,Tower Realty Austin
285000,285000,"1800 Lavaca St #A-516, Austin, TX 78701",1800 Lavaca St #A-516,Austin,TX,78701,1,1,618,30.280386,-97.74101,FALSE,"{'type': '3D_HOME', 'text': '3D Tour'}",,ForSale,For Sale (Broker),0,https://photos.zillowstatic.com/fp/98ab7c7b2895c2f5f278917766712625-zillow_web_48_23.jpg,All City Real Estate Ltd. Co
285000,285000,"1011 Markham Ln APT A, Austin, TX 78753",1011 Markham Ln APT A,Austin,TX,78753,2,1,832,30.392544,-97.65911,FALSE,"{'type': 'PRICE_REDUCTION', 'text': '$25,000 (Nov 11)'}",,ForSale,For Sale (Broker),0,https://photos.zillowstatic.com/fp/98ab7c7b2895c2f5f278917766712625-zillow_web_48_23.jpg,Realty Austin
730000,730000,"111 Mildred St, Austin, TX 78702",111 Mildred St,Austin,TX,78702,2,1,630,30.255764,-97.718735,FALSE,"{'type': 'DAYS_ON', 'text': '1 day on Zillow'}",,ForSale,For Sale (Broker),444900,https://photos.zillowstatic.com/fp/98ab7c7b2895c2f5f278917766712625-zillow_web_48_23.jpg,Austin Bee Realty
289900,289900,"4306 Avenue A APT 101, Austin, TX 78751",4306 Avenue A APT 101,Austin,TX,78751,1,1,723,30.308195,-97.73349,FALSE,"{'type': 'DAYS_ON', 'text': '21 days on Zillow'}",,ForSale,For Sale (Broker),0,https://photos.zillowstatic.com/fp/98ab7c7b2895c2f5f278917766712625-zillow_web_48_23.jpg,Full Spectrum Realty
290000,290000,"4418 Magin Meadow Dr, Austin, TX 78744",4418 Magin Meadow Dr,Austin,TX,78744,3,2,1232,30.179161,-97.75874,FALSE,"{'type': 'PRICE_REDUCTION', 'text': '$9,999 (Oct 27)'}",,ForSale,For Sale (Broker),0,https://photos.zillowstatic.com/fp/98ab7c7b2895c2f5f278917766712625-zillow_web_48_23.jpg,"Vidaurri Realty Group, Inc"
290000,290000,"601 Hearn St APT 102, Austin, TX 78703",601 Hearn St APT 102,Austin,TX,78703,1,1,443,30.27946,-97.77237,FALSE,"{'type': 'DAYS_ON', 'text': '2 days on Zillow'}",,ForSale,For Sale (Broker),0,https://photos.zillowstatic.com/fp/98ab7c7b2895c2f5f278917766712625-zillow_web_48_23.jpg,Moreland Properties
295000,295000,"901 E Village Ln, Austin, TX 78758",901 E Village Ln,Austin,TX,78758,2,2,1136,30.368484,-97.69729,FALSE,"{'type': 'PRICE_REDUCTION', 'text': '$12,000 (Oct 28)'}",,ForSale,For Sale (Broker),0,https://photos.zillowstatic.com/fp/98ab7c7b2895c2f5f278917766712625-zillow_web_48_23.jpg,Patricia Bernhardt
295000,295000,"6000 Shepherd Mountain Cv UNIT 1414, Austin, TX 78730",6000 Shepherd Mountain Cv UNIT 1414,Austin,TX,78730,1,1,608,30.357393,-97.79615,FALSE,"{'type': 'DAYS_ON', 'text': '1 day on Zillow'}",,ForSale,For Sale (Broker),0,https://photos.zillowstatic.com/fp/98ab7c7b2895c2f5f278917766712625-zillow_web_48_23.jpg,Distinct Real Estate
299000,299000,"2215 Post Rd APT 2110, Austin, TX 78704",2215 Post Rd APT 2110,Austin,TX,78704,2,2,905,30.241163,-97.75148,FALSE,"{'type': '3D_HOME', 'text': '3D Tour'}",,ForSale,For Sale (Broker),0,https://photos.zillowstatic.com/fp/98ab7c7b2895c2f5f278917766712625-zillow_web_48_23.jpg,Realty Austin
299000,299000,"6718 Silvermine Dr APT 1602, Austin, TX 78736",6718 Silvermine Dr APT 1602,Austin,TX,78736,2,2,1072,30.245983,-97.889626,FALSE,"{'type': 'DAYS_ON', 'text': '9 days on Zillow'}",,ForSale,For Sale (Broker),0,https://photos.zillowstatic.com/fp/98ab7c7b2895c2f5f278917766712625-zillow_web_48_23.jpg,Coldwell Banker Realty
299000,299000,"2020 S Congress Ave APT 1126, Austin, TX 78704",2020 S Congress Ave APT 1126,Austin,TX,78704,1,1,410,30.243511,-97.752075,FALSE,"{'type': 'TIME_ON_INFO', 'text': '7 hours ago', 'data': {'isFresh': False}}",,ForSale,For Sale (Broker),0,https://photos.zillowstatic.com/fp/98ab7c7b2895c2f5f278917766712625-zillow_web_48_23.jpg,"Safeco, REALTORS"
299000,299000,"4610 Credo Ln, Austin, TX 78725",4610 Credo Ln,Austin,TX,78725,3,2,1104,30.238297,-97.571304,FALSE,"{'type': 'PRICE_REDUCTION', 'text': '$31,000 (Sep 21)'}",,ForSale,For Sale (Broker),0,https://photos.zillowstatic.com/fp/98ab7c7b2895c2f5f278917766712625-zillow_web_48_23.jpg,Teifke Real Estate
299800,299800,"9004 Wellesley Dr, Austin, TX 78754",9004 Wellesley Dr,Austin,TX,78754,3,2,1254,30.33186,-97.64649,FALSE,"{'type': 'DAYS_ON', 'text': '9 days on Zillow'}",,ForSale,For Sale (Broker),0,https://photos.zillowstatic.com/fp/98ab7c7b2895c2f5f278917766712625-zillow_web_48_23.jpg,Austin Property Team
300000,300000,"12312 Furrow Cv APT B, Austin, TX 78753",12312 Furrow Cv APT B,Austin,TX,78753,3,2,1115,30.393892,-97.660355,FALSE,"{'type': 'DAYS_ON', 'text': '14 days on Zillow'}",,ForSale,For Sale (Broker),0,https://photos.zillowstatic.com/fp/98ab7c7b2895c2f5f278917766712625-zillow_web_48_23.jpg,Realty Austin
304000,304000,"14507 Varrelman St, Austin, TX 78725",14507 Varrelman St,Austin,TX,78725,4,3,1476,30.237051,-97.587166,FALSE,"{'type': 'PRICE_REDUCTION', 'text': '$65,000 (Nov 4)'}",,ForSale,For Sale (Broker),0,https://photos.zillowstatic.com/fp/98ab7c7b2895c2f5f278917766712625-zillow_web_48_23.jpg,"TCP Real Estate, Inc."
309900,309900,"2905 Rogge Ln, Austin, TX 78723",2905 Rogge Ln,Austin,TX,78723,3,1,816,30.304083,-97.68091,FALSE,"{'type': 'PRICE_REDUCTION', 'text': '$5,000 (Nov 15)'}",,ForSale,For Sale (Broker),0,https://photos.zillowstatic.com/fp/98ab7c7b2895c2f5f278917766712625-zillow_web_48_23.jpg,Pinnacle Realty Advisors
310000,310000,"3706 Denehoe Cv, Austin, TX 78725",3706 Denehoe Cv,Austin,TX,78725,4,3,1624,30.234795,-97.58753,FALSE,"{'type': 'PRICE_REDUCTION', 'text': '$25,000 (Oct 5)'}",,ForSale,For Sale (Broker),0,https://photos.zillowstatic.com/fp/98ab7c7b2895c2f5f278917766712625-zillow_web_48_23.jpg,Bell Real Estate
310000,310000,"8208 Alum Rock Dr, Austin, TX 78747",8208 Alum Rock Dr,Austin,TX,78747,3,3,1452,30.154041,-97.73689,FALSE,"{'type': '3D_HOME', 'text': '3D Tour'}",,ForSale,For Sale (Broker),0,https://photos.zillowstatic.com/fp/98ab7c7b2895c2f5f278917766712625-zillow_web_48_23.jpg,Watters International Realty
319900,319900,"2309 Peppertree Ct, Austin, TX 78744",2309 Peppertree Ct,Austin,TX,78744,3,2,1432,30.194267,-97.75159,FALSE,"{'type': 'PRICE_REDUCTION', 'text': '$20,000 (Nov 15)'}",,ForSale,For Sale (Broker),0,https://photos.zillowstatic.com/fp/98ab7c7b2895c2f5f278917766712625-zillow_web_48_23.jpg,Texas Ally Real Estate Group
319900,319900,"3105 Etheredge Dr, Austin, TX 78725",3105 Etheredge Dr,Austin,TX,78725,4,2,1522,30.230696,-97.59241,FALSE,"{'type': 'PRICE_REDUCTION', 'text': '$60,000 (Nov 9)'}",,ForSale,For Sale (Broker),0,,Realty Executives of Killeen
325000,325000,"10508 Georgian Dr, Austin, TX 78753",10508 Georgian Dr,Austin,TX,78753,2,1,1038,30.37218,-97.68612,FALSE,"{'type': '3D_HOME', 'text': '3D Tour'}",,ForSale,For Sale (Broker),0,https://photos.zillowstatic.com/fp/98ab7c7b2895c2f5f278917766712625-zillow_web_48_23.jpg,Watters International Realty
325000,325000,"4812 Flicker Ln, Austin, TX 78744",4812 Flicker Ln,Austin,TX,78744,3,1,1166,30.186333,-97.74668,FALSE,"{'type': '3D_HOME', 'text': '3D Tour'}",,ForSale,For Sale (Broker),0,https://photos.zillowstatic.com/fp/98ab7c7b2895c2f5f278917766712625-zillow_web_48_23.jpg,Watters International Realty
325000,325000,"2106 Ponciana Loop, Austin, TX 78744",2106 Ponciana Loop,Austin,TX,78744,4,2,1309,30.199406,-97.752914,FALSE,"{'type': 'PRICE_REDUCTION', 'text': '$45,000 (Sep 17)'}",,ForSale,For Sale (Broker),0,https://photos.zillowstatic.com/fp/98ab7c7b2895c2f5f278917766712625-zillow_web_48_23.jpg,Twelve Rivers Realty
325000,325000,"4808 Turnstone Dr, Austin, TX 78744",4808 Turnstone Dr,Austin,TX,78744,3,2,1055,30.187422,-97.74652,FALSE,"{'type': 'PRICE_REDUCTION', 'text': '$24,990 (Nov 6)'}",,ForSale,For Sale (Broker),0,https://photos.zillowstatic.com/fp/98ab7c7b2895c2f5f278917766712625-zillow_web_48_23.jpg,Realty Austin
329500,329500,"6906 Lovely Ln, Austin, TX 78744",6906 Lovely Ln,Austin,TX,78744,2,2,1234,30.177795,-97.753876,FALSE,"{'type': 'PRICE_REDUCTION', 'text': '$5,500 (Nov 16)'}",,ForSale,For Sale (Broker),0,https://photos.zillowstatic.com/fp/98ab7c7b2895c2f5f278917766712625-zillow_web_48_23.jpg,Gold Realty
329900,329900,"6403 Chimney Creek Cir #A, Austin, TX 78723",6403 Chimney Creek Cir #A,Austin,TX,78723,3,3,1239,30.311974,-97.67779,FALSE,"{'type': 'PRICE_REDUCTION', 'text': '$5,000 (Oct 31)'}",,ForSale,For Sale (Broker),0,https://photos.zillowstatic.com/fp/98ab7c7b2895c2f5f278917766712625-zillow_web_48_23.jpg,Pinnacle Realty Advisors
330000,330000,"620 S 1st St APT 106, Austin, TX 78704",620 S 1st St APT 106,Austin,TX,78704,1,1,606,30.25687,-97.75097,FALSE,"{'type': 'PRICE_REDUCTION', 'text': '$20,000 (Nov 9)'}",,ForSale,For Sale (Broker),0,https://photos.zillowstatic.com/fp/98ab7c7b2895c2f5f278917766712625-zillow_web_48_23.jpg,"Urban Tapestry RE SVC, LLC"
333900,333900,"510 Red Tails Dr NE, Austin, TX 78725",510 Red Tails Dr NE,Austin,TX,78725,4,2,1807,,,FALSE,"{'type': 'PRICE_REDUCTION', 'text': '$16,090 (Oct 5)'}",,ForSale,For Sale (Broker),0,https://photos.zillowstatic.com/fp/98ab7c7b2895c2f5f278917766712625-zillow_web_48_23.jpg,Teifke Real Estate
333900,333900,"510 Red Tails Dr, Austin, TX 78725",510 Red Tails Dr,Austin,TX,78725,4,2,1807,30.239054,-97.58191,FALSE,"{'type': 'PRICE_REDUCTION', 'text': '$16,090 (Oct 5)'}",,ForSale,For Sale (Broker),0,,Teifke Real Estate
334900,334900,"5713 Brampton Ln, Austin, TX 78724",5713 Brampton Ln,Austin,TX,78724,3,2,1464,30.2994,-97.6289,FALSE,"{'type': 'PRICE_REDUCTION', 'text': '$15,000 (Nov 10)'}",,ForSale,For Sale (Broker),0,https://photos.zillowstatic.com/fp/98ab7c7b2895c2f5f278917766712625-zillow_web_48_23.jpg,RPM RentSmart
334900,334900,"4604 Graceful Ln #509, Austin, TX 78725",4604 Graceful Ln #509,Austin,TX,78725,3,3,1308,30.240206,-97.5758,FALSE,"{'type': '3D_HOME', 'text': '3D Tour'}",,ForSale,For Sale (Broker),0,https://photos.zillowstatic.com/fp/98ab7c7b2895c2f5f278917766712625-zillow_web_48_23.jpg,Realty Austin
335000,335000,"12819 Magnolia Mound Trl, Austin, TX 78727",12819 Magnolia Mound Trl,Austin,TX,78727,2,2,1034,30.44039,-97.7501,FALSE,"{'type': 'PRICE_REDUCTION', 'text': '$14,000 (Oct 20)'}",,ForSale,For Sale (Broker),0,https://photos.zillowstatic.com/fp/98ab7c7b2895c2f5f278917766712625-zillow_web_48_23.jpg,Pure Realty
339000,339000,"13420 Lyndhurst St APT 101, Austin, TX 78729",13420 Lyndhurst St APT 101,Austin,TX,78729,3,3,1376,30.46809,-97.783134,FALSE,"{'type': '3D_HOME', 'text': '3D Tour'}",,ForSale,For Sale (Broker),0,https://photos.zillowstatic.com/fp/98ab7c7b2895c2f5f278917766712625-zillow_web_48_23.jpg,Redfin Corporation
339000,339000,"7021 Doyal Dr, Austin, TX 78747",7021 Doyal Dr,Austin,TX,78747,4,3,1660,30.151361,-97.7379,FALSE,"{'type': 'PRICE_REDUCTION', 'text': '$20,000 (Nov 16)'}",,ForSale,For Sale (Broker),0,https://photos.zillowstatic.com/fp/98ab7c7b2895c2f5f278917766712625-zillow_web_48_23.jpg,Kuper Sotheby's Int'l Realty N
339900,339900,"11313 Barns Trl, Austin, TX 78754",11313 Barns Trl,Austin,TX,78754,4,2,1342,30.348404,-97.61731,FALSE,"{'type': 'PRICE_REDUCTION', 'text': '$5,000 (Nov 3)'}",,ForSale,For Sale (Broker),0,https://photos.zillowstatic.com/fp/98ab7c7b2895c2f5f278917766712625-zillow_web_48_23.jpg,"Offerpad Brokerage, LLC"
339995,339995,"3627 Menchaca Rd #213, Austin, TX 78704",3627 Menchaca Rd #213,Austin,TX,78704,2,2,1036,30.237402,-97.78339,FALSE,"{'type': 'VIDEO_WALKTHROUGH', 'text': 'Video Walkthrough'}",,ForSale,For Sale (Broker),0,https://photos.zillowstatic.com/fp/98ab7c7b2895c2f5f278917766712625-zillow_web_48_23.jpg,Realty Austin
340000,340000,"7001 Hewers Dr, Del Valle, TX 78617",7001 Hewers Dr,Del Valle,TX,78617,4,2,1606,30.159115,-97.64974,FALSE,"{'type': 'PRICE_REDUCTION', 'text': '$20,000 (Nov 4)'}",,ForSale,For Sale (Broker),0,https://photos.zillowstatic.com/fp/98ab7c7b2895c2f5f278917766712625-zillow_web_48_23.jpg,JPAR Round Rock
340000,340000,"10108 Quail Valley Blvd, Austin, TX 78758",10108 Quail Valley Blvd,Austin,TX,78758,3,2,1036,30.37807,-97.70843,FALSE,"{'type': 'PRICE_REDUCTION', 'text': '$45,000 (Nov 12)'}",,ForSale,For Sale (Broker),0,https://photos.zillowstatic.com/fp/98ab7c7b2895c2f5f278917766712625-zillow_web_48_23.jpg,Realty Austin
344000,344000,"3704 Conyers, Austin, TX 78725",3704 Conyers,Austin,TX,78725,3,2,1401,,,FALSE,"{'type': 'PRICE_REDUCTION', 'text': '$2,000 (Nov 10)'}",,ForSale,For Sale (Broker),0,https://photos.zillowstatic.com/fp/98ab7c7b2895c2f5f278917766712625-zillow_web_48_23.jpg,"Opendoor Brokerage, LLC"
347000,347000,"1313 Alma Dr, Austin, TX 78753",1313 Alma Dr,Austin,TX,78753,3,2,1162,30.381481,-97.659996,FALSE,"{'type': 'PRICE_REDUCTION', 'text': '$22,900 (Nov 3)'}",,ForSale,For Sale (Broker),0,https://photos.zillowstatic.com/fp/98ab7c7b2895c2f5f278917766712625-zillow_web_48_23.jpg,"Opendoor Brokerage, LLC"
349000,349000,"2503 Lakehurst Dr, Austin, TX 78744",2503 Lakehurst Dr,Austin,TX,78744,3,2,1200,30.183386,-97.75542,FALSE,"{'type': 'PRICE_REDUCTION', 'text': '$25,000 (Oct 21)'}",,ForSale,For Sale (Broker),0,https://photos.zillowstatic.com/fp/98ab7c7b2895c2f5f278917766712625-zillow_web_48_23.jpg,Keller Williams Realty
349000,349000,"1605 Rutland Dr #B, Austin, TX 78758",1605 Rutland Dr #B,Austin,TX,78758,2,2,992,30.371239,-97.71014,FALSE,"{'type': 'DAYS_ON', 'text': '9 days on Zillow'}",,ForSale,For Sale (Broker),0,https://photos.zillowstatic.com/fp/98ab7c7b2895c2f5f278917766712625-zillow_web_48_23.jpg,"Local Life Realty, LLC"
349900,349900,"5005 Creek Bend Dr, Austin, TX 78744",5005 Creek Bend Dr,Austin,TX,78744,3,2,998,30.182735,-97.74717,FALSE,"{'type': 'OPEN_HOUSE', 'text': 'Open: Sat. 12-2pm'}",,ForSale,For Sale (Broker),0,https://photos.zillowstatic.com/fp/98ab7c7b2895c2f5f278917766712625-zillow_web_48_23.jpg,United Real Estate Austin
349900,349900,"6720 Quinton Dr, Austin, TX 78747",6720 Quinton Dr,Austin,TX,78747,3,2,1314,30.152534,-97.740944,FALSE,"{'type': 'PRICE_REDUCTION', 'text': '$30,000 (Oct 7)'}",,ForSale,For Sale (Broker),0,https://photos.zillowstatic.com/fp/98ab7c7b2895c2f5f278917766712625-zillow_web_48_23.jpg,Keller Williams - Lake Travis
349900,349900,"4417 Dove Dr, Austin, TX 78744",4417 Dove Dr,Austin,TX,78744,3,2,1260,30.189655,-97.75081,FALSE,"{'type': 'DAYS_ON', 'text': '6 days on Zillow'}",,ForSale,For Sale (Broker),0,https://photos.zillowstatic.com/fp/98ab7c7b2895c2f5f278917766712625-zillow_web_48_23.jpg,Kuper Sotheby's Int. Realty
349900,349900,"512 Eberhart Ln APT 1302, Austin, TX 78745",512 Eberhart Ln APT 1302,Austin,TX,78745,2,2,1045,30.199846,-97.78383,FALSE,"{'type': '3D_HOME', 'text': '3D Tour'}",,ForSale,For Sale (Broker),0,https://photos.zillowstatic.com/fp/98ab7c7b2895c2f5f278917766712625-zillow_web_48_23.jpg,Redfin Corporation
349999,349999,"7113 Outfitter Dr, Austin, TX 78744",7113 Outfitter Dr,Austin,TX,78744,3,2,1220,30.198622,-97.70054,FALSE,"{'type': 'PRICE_REDUCTION', 'text': '$20,001 (Nov 9)'}",,ForSale,For Sale (Broker),0,https://photos.zillowstatic.com/fp/98ab7c7b2895c2f5f278917766712625-zillow_web_48_23.jpg,"Carstin Realty, LLC"
350000,350000,"8200 Neely Dr APT 237, Austin, TX 78759",8200 Neely Dr APT 237,Austin,TX,78759,1,1,887,30.377478,-97.75857,FALSE,"{'type': 'DAYS_ON', 'text': '27 days on Zillow'}",,ForSale,For Sale (Broker),0,https://photos.zillowstatic.com/fp/98ab7c7b2895c2f5f278917766712625-zillow_web_48_23.jpg,"eXp Realty, LLC"
350000,350000,"6701 Rockridge Ct, Austin, TX 78744",6701 Rockridge Ct,Austin,TX,78744,4,2,1333,30.183527,-97.756195,FALSE,"{'type': 'DAYS_ON', 'text': '27 days on Zillow'}",,ForSale,For Sale (Broker),0,https://photos.zillowstatic.com/fp/98ab7c7b2895c2f5f278917766712625-zillow_web_48_23.jpg,T J Lewis Real Estate
350000,350000,"3523 Greystone Dr APT 104, Austin, TX 78731",3523 Greystone Dr APT 104,Austin,TX,78731,2,3,1332,30.358173,-97.750145,FALSE,"{'type': 'PRICE_REDUCTION', 'text': '$25,000 (Nov 8)'}",,ForSale,For Sale (Broker),0,https://photos.zillowstatic.com/fp/98ab7c7b2895c2f5f278917766712625-zillow_web_48_23.jpg,"Keller Williams, LLC"
350000,350000,"9009 Rodriguez Rd, Austin, TX 78747",9009 Rodriguez Rd,Austin,TX,78747,3,2,1720,30.119797,-97.7149,FALSE,"{'type': 'PRICE_REDUCTION', 'text': '$25,000 (Nov 10)'}",,ForSale,For Sale (Broker),0,https://photos.zillowstatic.com/fp/98ab7c7b2895c2f5f278917766712625-zillow_web_48_23.jpg,Keller Williams Realty
350000,350000,"4902 Savorey Ln, Austin, TX 78744",4902 Savorey Ln,Austin,TX,78744,4,2,1488,30.172205,-97.75594,FALSE,"{'type': 'PRICE_REDUCTION', 'text': '$20,000 (Oct 22)'}",,ForSale,For Sale (Broker),0,https://photos.zillowstatic.com/fp/98ab7c7b2895c2f5f278917766712625-zillow_web_48_23.jpg,Spyglass Realty
350001,350001,"3507 Conyers Ln, Austin, TX 78725",3507 Conyers Ln,Austin,TX,78725,3,2,1401,30.23215,-97.58271,FALSE,"{'type': 'DAYS_ON', 'text': '31 days on Zillow'}",,ForSale,For Sale (Broker),0,https://photos.zillowstatic.com/fp/98ab7c7b2895c2f5f278917766712625-zillow_web_48_23.jpg,JPAR Austin
355000,355000,"5604 Alomar Cv, Del Valle, TX 78617",5604 Alomar Cv,Del Valle,TX,78617,4,3,2691,30.171202,-97.61854,FALSE,"{'type': 'PRICE_REDUCTION', 'text': '$20,000 (Oct 28)'}",,ForSale,For Sale (Broker),0,https://photos.zillowstatic.com/fp/98ab7c7b2895c2f5f278917766712625-zillow_web_48_23.jpg,"Keller Williams, LLC"
355000,355000,"12004 Thompkins Dr, Austin, TX 78753",12004 Thompkins Dr,Austin,TX,78753,3,2,1304,30.38383,-97.66288,FALSE,"{'type': '3D_HOME', 'text': '3D Tour'}",,ForSale,For Sale (Broker),0,https://photos.zillowstatic.com/fp/98ab7c7b2895c2f5f278917766712625-zillow_web_48_23.jpg,Berkshire Hathaway TX Realty
356800,356800,"6501 E Hill Dr APT 111, Austin, TX 78731",6501 E Hill Dr APT 111,Austin,TX,78731,2,2,1037,30.345987,-97.753,FALSE,"{'type': 'PRICE_REDUCTION', 'text': '$2,200 (Nov 5)'}",,ForSale,For Sale (Broker),0,https://photos.zillowstatic.com/fp/98ab7c7b2895c2f5f278917766712625-zillow_web_48_23.jpg,Austin ONE Realty
360000,360000,"11020 Furrow Hill Dr, Austin, TX 78754",11020 Furrow Hill Dr,Austin,TX,78754,4,2,1801,30.358278,-97.642456,FALSE,"{'type': 'PRICE_REDUCTION', 'text': '$24,900 (Oct 14)'}",,ForSale,For Sale (Broker),0,https://photos.zillowstatic.com/fp/98ab7c7b2895c2f5f278917766712625-zillow_web_48_23.jpg,Bramlett Residential
360000,360000,"700 Nelray Blvd APT 106, Austin, TX 78751",700 Nelray Blvd APT 106,Austin,TX,78751,2,2,1062,30.322453,-97.726776,FALSE,"{'type': 'PRICE_REDUCTION', 'text': '$30,000 (Sep 26)'}",,ForSale,For Sale (Broker),0,https://photos.zillowstatic.com/fp/98ab7c7b2895c2f5f278917766712625-zillow_web_48_23.jpg,MoveGroove
365000,365000,"10421 Doc Holliday Trl, Austin, TX 78753",10421 Doc Holliday Trl,Austin,TX,78753,2,2,1190,30.370193,-97.68561,FALSE,"{'type': 'PRICE_REDUCTION', 'text': '$15,000 (Nov 8)'}",,ForSale,For Sale (Broker),0,https://photos.zillowstatic.com/fp/98ab7c7b2895c2f5f278917766712625-zillow_web_48_23.jpg,Capital Realty
365000,365000,"1706 Timber Ridge Dr, Austin, TX 78741",1706 Timber Ridge Dr,Austin,TX,78741,3,3,1531,30.226511,-97.742195,FALSE,"{'type': '3D_HOME', 'text': '3D Tour'}",,ForSale,For Sale (Broker),0,https://photos.zillowstatic.com/fp/98ab7c7b2895c2f5f278917766712625-zillow_web_48_23.jpg,Watters International Realty
369000,369000,"7309 Marble Ridge Dr, Austin, TX 78747",7309 Marble Ridge Dr,Austin,TX,78747,3,2,1818,30.164934,-97.741066,FALSE,"{'type': 'PRICE_REDUCTION', 'text': '$10,000 (Oct 12)'}",,ForSale,For Sale (Broker),0,https://photos.zillowstatic.com/fp/98ab7c7b2895c2f5f278917766712625-zillow_web_48_23.jpg,JPAR Round Rock
369000,369000,"743 E Oltorf St APT 204, Austin, TX 78704",743 E Oltorf St APT 204,Austin,TX,78704,2,1,923,30.236437,-97.74792,FALSE,"{'type': 'DAYS_ON', 'text': '5 days on Zillow'}",,ForSale,For Sale (Broker),0,https://photos.zillowstatic.com/fp/98ab7c7b2895c2f5f278917766712625-zillow_web_48_23.jpg,"Kenney Grant Realty, LLC"
369000,369000,"13001 Widge Dr, Austin, TX 78727",13001 Widge Dr,Austin,TX,78727,3,2,1147,30.419779,-97.68662,FALSE,"{'type': 'DAYS_ON', 'text': '11 days on Zillow'}",,ForSale,For Sale (Broker),0,https://photos.zillowstatic.com/fp/98ab7c7b2895c2f5f278917766712625-zillow_web_48_23.jpg,"eXp Realty, LLC"
374999,374999,"1800 Wheless Ln #A, Austin, TX 78723",1800 Wheless Ln #A,Austin,TX,78723,2,1,885,30.315203,-97.690254,FALSE,"{'type': 'PRICE_REDUCTION', 'text': '$20,000 (Nov 9)'}",,ForSale,For Sale (Broker),0,https://photos.zillowstatic.com/fp/98ab7c7b2895c2f5f278917766712625-zillow_web_48_23.jpg,Realty Austin
374999,374999,"11413 Kirkland Hill Path, Austin, TX 78754",11413 Kirkland Hill Path,Austin,TX,78754,3,3,1788,30.349201,-97.619995,FALSE,"{'type': 'DAYS_ON', 'text': '14 days on Zillow'}",,ForSale,For Sale (Broker),0,https://photos.zillowstatic.com/fp/98ab7c7b2895c2f5f278917766712625-zillow_web_48_23.jpg,Sprout Realty
375000,375000,"6609 Branchwood Dr, Austin, TX 78744",6609 Branchwood Dr,Austin,TX,78744,3,2,955,30.18349,-97.757416,FALSE,"{'type': 'VIDEO_WALKTHROUGH', 'text': 'Video Walkthrough'}",,ForSale,For Sale (Broker),0,https://photos.zillowstatic.com/fp/98ab7c7b2895c2f5f278917766712625-zillow_web_48_23.jpg,Blairfield Realty LLC
375000,375000,"12300 Kilmartin Ln, Austin, TX 78754",12300 Kilmartin Ln,Austin,TX,78754,3,3,1875,30.364616,-97.61009,FALSE,"{'type': 'DAYS_ON', 'text': '8 days on Zillow'}",,ForSale,For Sale (Broker),0,https://photos.zillowstatic.com/fp/98ab7c7b2895c2f5f278917766712625-zillow_web_48_23.jpg,Watters International Realty
375000,375000,"11804 N Oaks Dr, Austin, TX 78753",11804 N Oaks Dr,Austin,TX,78753,4,3,1419,30.38446,-97.672585,FALSE,"{'type': 'PRICE_REDUCTION', 'text': '$25,000 (Nov 14)'}",,ForSale,For Sale (Broker),0,https://photos.zillowstatic.com/fp/98ab7c7b2895c2f5f278917766712625-zillow_web_48_23.jpg,Thrive Realty
375000,375000,"1101 Grove Blvd APT 306, Austin, TX 78741",1101 Grove Blvd APT 306,Austin,TX,78741,2,3,1214,30.235382,-97.703804,FALSE,"{'type': 'DAYS_ON', 'text': '27 days on Zillow'}",,ForSale,For Sale (Broker),0,https://photos.zillowstatic.com/fp/98ab7c7b2895c2f5f278917766712625-zillow_web_48_23.jpg,Realty Austin
375000,375000,"4704 Fort Moultrie Ln, Austin, TX 78754",4704 Fort Moultrie Ln,Austin,TX,78754,3,2,1613,30.337437,-97.64806,FALSE,"{'type': 'PRICE_REDUCTION', 'text': '$20,000 (Nov 4)'}",,ForSale,For Sale (Broker),0,https://photos.zillowstatic.com/fp/98ab7c7b2895c2f5f278917766712625-zillow_web_48_23.jpg,Outlaw Realty
379000,379000,"306 Holliday Ct, Austin, TX 78753",306 Holliday Ct,Austin,TX,78753,3,2,1235,30.369465,-97.68601,FALSE,"{'type': 'DAYS_ON', 'text': '12 days on Zillow'}",,ForSale,For Sale (Broker),0,https://photos.zillowstatic.com/fp/98ab7c7b2895c2f5f278917766712625-zillow_web_48_23.jpg,KW-Austin Portfolio RealEstate
379000,379000,"12520 La Paz Ln, Del Valle, TX 78617",12520 La Paz Ln,Del Valle,TX,78617,3,3,1659,30.167074,-97.628296,FALSE,"{'type': 'DAYS_ON', 'text': '25 days on Zillow'}",,ForSale,For Sale (Broker),0,https://photos.zillowstatic.com/fp/98ab7c7b2895c2f5f278917766712625-zillow_web_48_23.jpg,"Compass RE Texas, LLC"
379000,379000,"8104 Valleyfield Dr, Austin, TX 78724",8104 Valleyfield Dr,Austin,TX,78724,5,2,1580,30.299532,-97.628456,FALSE,"{'type': '3D_HOME', 'text': '3D Tour'}",,ForSale,For Sale (Broker),0,https://photos.zillowstatic.com/fp/98ab7c7b2895c2f5f278917766712625-zillow_web_48_23.jpg,Watters International Realty
380000,380000,"12217 Orkney Ln, Austin, TX 78754",12217 Orkney Ln,Austin,TX,78754,4,3,2277,30.364496,-97.6106,FALSE,"{'type': 'PRICE_REDUCTION', 'text': '$20,000 (Nov 12)'}",,ForSale,For Sale (Broker),0,,Coldwell Banker Realty
385000,385000,"1729 Gaylord Dr, Austin, TX 78728",1729 Gaylord Dr,Austin,TX,78728,3,2,1449,30.43804,-97.67498,FALSE,"{'type': 'PRICE_REDUCTION', 'text': '$15,000 (Oct 25)'}",,ForSale,For Sale (Broker),0,https://photos.zillowstatic.com/fp/98ab7c7b2895c2f5f278917766712625-zillow_web_48_23.jpg,Keller Williams Realty
385000,385000,"11405 Lost Maples Trl, Austin, TX 78748",11405 Lost Maples Trl,Austin,TX,78748,2,3,1545,30.154985,-97.832634,FALSE,"{'type': '3D_HOME', 'text': '3D Tour'}",,ForSale,For Sale (Broker),0,https://photos.zillowstatic.com/fp/98ab7c7b2895c2f5f278917766712625-zillow_web_48_23.jpg,Keller Williams Realty
385000,385000,"4801 Leatherleaf Trl, Austin, TX 78744",4801 Leatherleaf Trl,Austin,TX,78744,3,2,1080,30.189415,-97.74608,FALSE,"{'type': 'PRICE_REDUCTION', 'text': '$14,000 (Nov 16)'}",,ForSale,For Sale (Broker),0,https://photos.zillowstatic.com/fp/98ab7c7b2895c2f5f278917766712625-zillow_web_48_23.jpg,Realty Austin
385000,385000,"1104 Fauntleroy Trl, Austin, TX 78758",1104 Fauntleroy Trl,Austin,TX,78758,4,2,1356,30.378178,-97.69534,FALSE,"{'type': 'DAYS_ON', 'text': '19 days on Zillow'}",,ForSale,For Sale (Broker),0,https://photos.zillowstatic.com/fp/98ab7c7b2895c2f5f278917766712625-zillow_web_48_23.jpg,Coldwell Banker Realty
385000,385000,"12821 Stoney Ridge Bnd, Del Valle, TX 78617",12821 Stoney Ridge Bnd,Del Valle,TX,78617,3,3,2281,30.161036,-97.63293,FALSE,"{'type': 'PRICE_REDUCTION', 'text': '$40,000 (Nov 5)'}",,ForSale,For Sale (Broker),0,,RE/MAX Freedom
389000,389000,"2804 Westhill Dr APT 101, Austin, TX 78704",2804 Westhill Dr APT 101,Austin,TX,78704,1,2,849,30.24623,-97.78362,FALSE,"{'type': 'DAYS_ON', 'text': '12 days on Zillow'}",,ForSale,For Sale (Broker),0,https://photos.zillowstatic.com/fp/98ab7c7b2895c2f5f278917766712625-zillow_web_48_23.jpg,"Waterloo Realty, LLC"
389900,389900,"3833 Bronco Bend Loop, Austin, TX 78744",3833 Bronco Bend Loop,Austin,TX,78744,3,2,1597,30.196163,-97.694275,FALSE,"{'type': 'PRICE_REDUCTION', 'text': '$10,000 (Nov 14)'}",,ForSale,For Sale (Broker),0,https://photos.zillowstatic.com/fp/98ab7c7b2895c2f5f278917766712625-zillow_web_48_23.jpg,Austin Homescapes Realty
389900,389900,"10508 Crescendo Ln, Austin, TX 78747",10508 Crescendo Ln,Austin,TX,78747,3,2,1706,30.136856,-97.766235,FALSE,"{'type': '3D_HOME', 'text': '3D Tour'}",,ForSale,For Sale (Broker),0,https://photos.zillowstatic.com/fp/98ab7c7b2895c2f5f278917766712625-zillow_web_48_23.jpg,Dash Realty
5200000,5200000,"7500 Escala Dr, Austin, TX 78735",7500 Escala Dr,Austin,TX,78735,6,10,13037,30.271664,-97.8584,FALSE,"{'type': 'PRICE_REDUCTION', 'text': '$600,000 (Aug 19)'}",,ForSale,For Sale (Broker),4802100,https://photos.zillowstatic.com/fp/98ab7c7b2895c2f5f278917766712625-zillow_web_48_23.jpg,Keller Williams Realty
399000,399000,"9201 Brodie Ln UNIT 1403, Austin, TX 78748",9201 Brodie Ln UNIT 1403,Austin,TX,78748,3,3,1550,30.193233,-97.84334,FALSE,"{'type': 'PRICE_REDUCTION', 'text': '$11,000 (Nov 16)'}",,ForSale,For Sale (Broker),0,https://photos.zillowstatic.com/fp/98ab7c7b2895c2f5f278917766712625-zillow_web_48_23.jpg,"eXp Realty, LLC"
399000,399000,"1417 Byers Ln, Austin, TX 78753",1417 Byers Ln,Austin,TX,78753,3,2,1375,30.378119,-97.66095,FALSE,"{'type': '3D_HOME', 'text': '3D Tour'}",,ForSale,For Sale (Broker),0,https://photos.zillowstatic.com/fp/98ab7c7b2895c2f5f278917766712625-zillow_web_48_23.jpg,Redfin Corporation
399000,399000,"11349 Sprinkle Cutoff Rd, Austin, TX 78754",11349 Sprinkle Cutoff Rd,Austin,TX,78754,3,3,1678,30.36944,-97.65568,FALSE,"{'type': 'OPEN_HOUSE', 'text': 'Open: Sun. 1-3pm'}",,ForSale,For Sale (Broker),0,https://photos.zillowstatic.com/fp/98ab7c7b2895c2f5f278917766712625-zillow_web_48_23.jpg,Keller Williams Realty-RR WC
399000,399000,"7051 Thistle Hill Way, Austin, TX 78754",7051 Thistle Hill Way,Austin,TX,78754,4,2,2277,30.3493,-97.61034,FALSE,"{'type': 'PRICE_REDUCTION', 'text': '$20,000 (Nov 14)'}",,ForSale,For Sale (Broker),0,https://photos.zillowstatic.com/fp/98ab7c7b2895c2f5f278917766712625-zillow_web_48_23.jpg,Ashley Austin Homes
399500,399500,"10201 Criswell Rd, Austin, TX 78754",10201 Criswell Rd,Austin,TX,78754,3,2,1657,30.355328,-97.65922,FALSE,"{'type': 'DAYS_ON', 'text': '8 days on Zillow'}",,ForSale,For Sale (Broker),0,https://photos.zillowstatic.com/fp/98ab7c7b2895c2f5f278917766712625-zillow_web_48_23.jpg,Co Op Realty
